stop_id,stop_name,stop_lat,stop_lon,stop_code,location_type,location_sub_type,parent_station,wheelchair_boarding
002133,"Örs vezér tere M+H, déli tárolótér",47.500366,19.135700,002133,,,,
002138,Kőbánya alsó vasútállomás,47.483139,19.127891,002138,,,,2
003002,Puskás Ferenc Stadion M,47.500368,19.103406,003002,,,,
003102,Mexikói út M,47.519989,19.091036,003102,,,,1
003105,Bécsi út / Vörösvári út,47.548817,19.029722,003105,,,,2
003106,"Örs vezér tere M+H, északi tároló",47.505160,19.136637,003106,,,,
003118,"Óbuda, Bogdáni út",47.551471,19.041971,003118,,,,2
004716,"ÉD metró járműtelep,porta",47.469651,19.129090,004716,,,,2
004948,Metró ÉD járműtelep (kapu),47.465239,19.142612,004948,,,,
004952,Metró KNY járműtelep (kapu),47.502234,19.132179,004952,,,,
005924,Mill.FAV járműtelep (kapu),47.518788,19.093168,005924,,,,
006390,Cinkota kocsiszín (kapu),47.519365,19.216995,006390,,,,
007177,Csepel kocsiszín (kapu),47.421449,19.066161,007177,,,,
007675,Dunaharaszti külső kocsiszín (kapu),47.362643,19.088375,007675,,,,
007762,Szentendre kocsiszín (kapu),47.658768,19.072392,007762,,,,
007817,Márta utca,47.429184,18.929497,007817,,,,2
007877,Bíróság,47.519544,18.978060,007877,,,,1
007878,Bíróság,47.519418,18.978021,007878,,,,1
007879,"Római úti lakótelep, Varsa utca",47.570840,19.058436,007879,,,,1
007880,Bécsi út / Vörösvári út,47.547562,19.028729,007880,,,,1
007881,Váradi utca,47.543722,19.030125,007881,,,,1
007882,Váradi utca,47.542679,19.029953,007882,,,,1
007883,Perényi út,47.545800,19.029579,007883,,,,1
007884,Deák Ferenc tér M,47.497413,19.055158,007884,,,,1
007885,Dorottya utca (Vörösmarty tér M),47.497476,19.049623,007885,,,,1
007887,Mester utca / Ferenc körút,47.482310,19.068795,007887,,,,1
007888,Mester utca / Ferenc körút,47.482562,19.068477,007888,,,,1
007890,Mester utca / Ferenc körút,47.481671,19.068782,007890,,,,2
007897,Kelenföld vasútállomás M,47.464581,19.022964,007897,,,,1
007900,Maros utcai rendelőintézet,47.503724,19.022401,007900,,,,1
007902,Újpest-városkapu M,47.558551,19.078245,007902,,,,1
007913,526. sor,47.479274,19.211295,007913,,,,2
007914,526. sor,47.479282,19.211481,007914,,,,2
007923,Kele utca,47.431750,19.173783,007923,,,,1
007924,Ültetvény utca,47.396895,19.175423,007924,,,,2
007927,Ferihegy vasútállomás,47.438423,19.222716,007927,,,,1
007928,Ferihegy vasútállomás,47.437667,19.223377,007928,,,,1
007930,Savoyai Jenő tér (Törley tér),47.430333,19.036354,007930,,,,1
007931,Savoyai Jenő tér (Törley tér),47.430369,19.036792,007931,,,,1
007949,Kocsis Sándor út,47.574343,19.013009,007949,,,,1
007950,Keleti pályaudvar M,47.501104,19.082712,007950,,,,1
007967,Kelenföld vasútállomás M,47.465732,19.021875,007967,,,,1
007968,Mogyoród útja,47.570602,19.128267,007968,,,,1
007972,Hűvösvölgy,47.543009,18.964481,007972,,,,1
007973,Hűvösvölgy,47.542892,18.964574,007973,,,,1
007974,Hűvösvölgy,47.542605,18.964773,007974,,,,1
007975,Hűvösvölgy,47.543243,18.964281,007975,,,,2
007976,Hűvösvölgy,47.543264,18.963995,007976,,,,1
007977,Hűvösvölgy,47.542968,18.964195,007977,,,,1
007978,Hűvösvölgy,47.542707,18.964355,007978,,,,1
007979,Vörösmarty utca M,47.507404,19.066482,007979,,,,1
007980,Vörösmarty utca M,47.507413,19.066787,007980,,,,1
007995,Jókai Mór utca,47.410696,19.020671,007995,,,,1
007996,Budatétény vasútállomás (Campona),47.405649,19.013780,007996,,,,1
007997,Budatétény vasútállomás (Campona),47.405972,19.014129,007997,,,,1
007998,Budatétény vasútállomás (Campona),47.405730,19.014323,007998,,,,1
007999,Budatétény vasútállomás (Campona),47.405702,19.014155,007999,,,,1
008003,Budagyöngye,47.515894,18.999506,008003,,,,2
008005,Móricz Zsigmond körtér M,47.477059,19.047540,008005,,,,1
008018,"Örs vezér tere M+H, új tárolótér",47.500933,19.135714,008018,,,,2
008021,Örs vezér tere M+H,47.501940,19.136228,008021,,,,1
008022,Örs vezér tere M+H,47.501517,19.136333,008022,,,,1
008023,Örs vezér tere M+H,47.501472,19.136134,008023,,,,1
008024,Örs vezér tere M+H,47.501148,19.136213,008024,,,,1
008025,Örs vezér tere M+H,47.501778,19.135922,008025,,,,1
008026,Örs vezér tere M+H,47.501355,19.136028,008026,,,,1
008028,Örs vezér tere M+H,47.501112,19.135882,008028,,,,1
008029,Örs vezér tere M+H,47.502111,19.135697,008029,,,,1
008030,Örs vezér tere M+H,47.501742,19.135604,008030,,,,1
008036,Kőbányai út 31.,47.487461,19.104252,008036,,,,1
008037,Kőbányai út 31.,47.487452,19.103721,008037,,,,1
008040,Tas vezér utca,47.478606,19.040827,008040,,,,2
008041,Tas vezér utca,47.478849,19.040827,008041,,,,1
008047,Lajosmizsei sorompó,47.450468,19.161410,008047,,,,2
008050,Liptó utca,47.486100,19.007031,008050,,,,2
008051,Liptó utca,47.486010,19.007071,008051,,,,2
008054,Mexikói út,47.519658,19.091078,008054,1,,,2
008055,Széchenyi fürdő,47.517483,19.080950,008055,1,,,2
008056,Hősök tere,47.514259,19.076845,008056,1,,,2
008057,Bajza utca,47.511333,19.072468,008057,1,,,2
008058,Kodály körönd,47.509232,19.069324,008058,1,,,2
008059,Vörösmarty utca,47.507214,19.066305,008059,1,,,2
008060,Oktogon,47.505058,19.063070,008060,1,,,2
008061,Opera,47.502254,19.058914,008061,1,,,2
008062,Bajcsy-Zsilinszky út,47.499828,19.055244,008062,1,,,2
008067,Szent Imre tér,47.430889,19.070300,008067,,,,1
008068,Vörösmarty tér,47.496802,19.050523,008068,1,,,2
008075,Kőbánya-Kispest,47.463402,19.149185,008075,1,,,2
008076,Határ út,47.465443,19.126757,008076,1,,,2
008077,Pöttyös utca,47.468548,19.116946,008077,1,,,2
008078,Ecseri út,47.470920,19.111329,008078,1,,,2
008082,Népliget,47.475441,19.098808,008082,1,,,2
008083,Nagyvárad tér,47.478943,19.089796,008083,1,,,2
008084,Semmelweis Klinikák,47.482834,19.079176,008084,1,,,2
008085,Corvin-negyed,47.485786,19.070152,008085,1,,,2
008086,Széll Kálmán tér M,47.507313,19.026381,008086,,,,1
008087,Fény utcai piac,47.508464,19.023646,008087,,,,1
008089,Móricz Zsigmond körtér M,47.476921,19.050019,008089,,,,1
008090,Móricz Zsigmond körtér M,47.477256,19.048786,008090,,,,1
008093,Dél-pesti autóbuszgarázs,47.426707,19.161776,008093,,,,1
008094,Dél-pesti autóbuszgarázs,47.426160,19.160940,008094,,,,1
008095,Nagykőrösi út,47.425255,19.157029,008095,,,,2
008096,Nagykőrösi út,47.425183,19.157506,008096,,,,2
008098,Szabina út,47.436409,19.013419,008098,,,,1
008099,Pék utca,47.442142,19.018436,008099,,,,1
008100,Pék utca,47.442188,19.018635,008100,,,,2
008101,Rózsavölgy felső,47.441163,19.022295,008101,,,,1
008102,Rózsavölgy felső,47.441217,19.022388,008102,,,,1
008103,Rózsavölgy alsó,47.438304,19.030344,008103,,,,1
008104,Rózsavölgy alsó,47.438304,19.030012,008104,,,,1
008106,Vihar utca,47.434282,19.035651,008106,,,,1
008109,Damjanich utca,47.402527,18.991053,008109,,,,1
008110,Barosstelep vasútállomás,47.399613,18.990911,008110,,,,1
008111,Barackos út / Angeli utca,47.402248,18.974427,008111,,,,1
008112,Szakiskola utca,47.404920,18.975841,008112,,,,2
008113,Szilvafa utca,47.405184,18.982160,008113,,,,2
008114,Mátyás király utca,47.404326,18.990746,008114,,,,2
008115,Szebeni utca,47.430356,19.016021,008115,,,,1
008116,Szebeni utca,47.430177,19.016910,008116,,,,1
008119,Mátra utca,47.400093,18.997693,008119,,,,2
008120,Budatétény vasútállomás (Campona),47.405739,19.013846,008120,,,,1
008124,Zöldike utca,47.430715,19.012800,008124,,,,1
008125,Zöldike utca,47.431205,19.012359,008125,,,,1
008126,Hír utca,47.432864,19.011526,008126,,,,1
008127,Hír utca,47.432882,19.011420,008127,,,,1
008128,Ady Endre út,47.435802,19.036578,008128,,,,2
008129,Kálvin tér,47.489693,19.061707,008129,1,,,2
008130,Ferenciek tere,47.493172,19.055920,008130,1,,,2
008132,Puskás Ferenc Stadion M,47.501220,19.107704,008132,,,,1
008136,Arany János utca,47.503063,19.054531,008136,1,,,2
008137,Nyugati pályaudvar,47.510571,19.056072,008137,1,,,2
008138,Lehel tér,47.517410,19.060192,008138,1,,,2
008139,Dózsa György út,47.524653,19.063321,008139,1,,,2
008141,Göncz Árpád városközpont,47.532719,19.066755,008141,1,,,2
008146,Vajda Péter utca,47.481389,19.103174,008146,,,,1
008147,Vajda Péter utca,47.481770,19.103619,008147,,,,1
008148,Kőbányai út / Könyves Kálmán körút,47.485742,19.107077,008148,,,,1
008149,Kőbányai út / Könyves Kálmán körút,47.486236,19.107515,008149,,,,1
008150,Zsil utca,47.482940,19.062984,008150,,,,2
008152,Mester utca / Könyves Kálmán körút,47.469596,19.083728,008152,,,,1
008153,Mester utca / Könyves Kálmán körút,47.469723,19.084482,008153,,,,1
008155,Közvágóhíd H,47.468737,19.072756,008155,,,,1
008156,Új köztemető,47.473586,19.178326,008156,,,,1
008159,Forgách utca,47.539383,19.069597,008159,1,,,2
008162,Gyöngyösi utca,47.548691,19.073233,008162,1,,,2
008163,Újpest-városkapu,47.558926,19.079229,008163,1,,,2
008164,Örs vezér tere M+H,47.501382,19.136585,008164,,,,1
008165,Örs vezér tere M+H,47.501849,19.136467,008165,,,,1
008168,I. utca,47.400994,19.002739,008168,,,,1
008169,I. utca,47.400904,19.003494,008169,,,,1
008170,Angeli utca / Nagytétényi út,47.390622,18.981000,008170,,,,1
008175,Népliget M,47.475806,19.100180,008175,,,,2
008181,Cinkotai autóbuszgarázs,47.498562,19.237779,008181,,,,2
008186,Újpest-központ,47.560429,19.089916,008186,1,,,2
008206,Mexikói út M,47.519261,19.091048,008206,,,,1
008209,Nagy Lajos király útja / Czobor utca,47.522170,19.102815,008209,,,,1
008218,Széchenyi István tér,47.498915,19.047062,008218,,,,2
008222,Örs vezér tere M+H,47.503684,19.136443,008222,,,,1
008238,Széchenyi István tér,47.500543,19.046690,008238,,,,1
008239,Müpa - Nemzeti Színház H,47.471165,19.073129,008239,,,,1
008240,Müpa - Nemzeti Színház H,47.471354,19.073301,008240,,,,1
008241,Szőnyi út,47.526625,19.096220,008241,,,,1
008242,Teleki Blanka utca,47.523865,19.093761,008242,,,,1
008245,Kolozsvár utcai piac,47.536842,19.114916,008245,,,,1
008246,Rákospalotai köztemető,47.551236,19.136137,008246,,,,1
008260,Nagybányai út,47.528503,18.996288,008260,,,,1
008261,Nagybányai út,47.528368,18.996467,008261,,,,1
008262,Hidegkuti Nándor Stadion,47.490690,19.108910,008262,,,,1
008265,Közvágóhíd H,47.468737,19.073486,008265,,,,1
008267,Szentlőrinci út,47.424625,19.157703,008267,,,,1
008269,Delej utca,47.484694,19.096209,008269,,,,1
008270,Delej utca,47.484460,19.096407,008270,,,,1
008271,Szentendre,47.661045,19.075578,008271,1,,,2
008273,Beöthy utca,47.460670,19.081820,008273,1,,,2
008275,Timót utca,47.447949,19.090447,008275,1,,,2
008280,Infopark (Pázmány Péter sétány),47.469242,19.064333,008280,,,,1
008283,Óceán-árok utca,47.589986,19.100345,008283,,,,1
008284,Óceán-árok utca,47.590345,19.101781,008284,,,,1
008286,Népliget M,47.476294,19.099288,008286,,,,1
008287,Népliget M,47.476140,19.098735,008287,,,,1
008289,Szilágyi utca,47.570877,19.111330,008289,,,,1
008317,Bartók Béla utca,47.433275,18.919546,008317,,,,1
008318,Raktárváros,47.441443,18.938007,008318,,,,1
008319,Raktárváros,47.441434,18.938378,008319,,,,1
008322,Harangláb,47.431919,18.914048,008322,,,,1
008323,Károlyi utca,47.437730,18.899544,008323,,,,2
008324,Tükörhegy,47.436368,18.927095,008324,,,,1
008325,Tükörhegy,47.436170,18.926976,008325,,,,1
008326,Ady Endre utca,47.435045,18.906261,008326,,,,1
008328,Törökbálint Sportközpont,47.440072,18.895693,008328,,,,1
008329,Törökbálint Sportközpont,47.440269,18.895215,008329,,,,1
008330,Határ utca,47.445251,18.894299,008330,,,,1
008331,Határ utca,47.444924,18.894036,008331,,,,2
008332,Hosszúrét utca,47.446051,18.881264,008332,,,,2
008333,"Törökbálint, bevásárlóközpont",47.443242,18.887398,008333,,,,2
008336,Növény utca,47.402042,19.015774,008336,,,,1
008337,Növény utca,47.402114,19.015257,008337,,,,1
008339,Budaörsi lakótelep,47.455746,18.940232,008339,,,,1
008341,Templom tér,47.542265,19.130118,008341,,,,1
008344,Királyhágó tér,47.495421,19.018715,008344,,,,1
008345,Katona József utca,47.438530,18.906237,008345,,,,1
008353,Észak-Pesti Kórház,47.539329,19.122370,008353,,,,1
008359,Óbudai autóbuszgarázs,47.567996,19.026289,F00678,,merged,MERGED_F00678,1
008360,Óbudai autóbuszgarázs,47.568290,19.026730,008360,,,,2
008365,Bécsi út / Vörösvári út,47.548489,19.028994,F00568,,merged,MERGED_F00568,1
008368,Szigetmajor,47.293738,18.964665,008368,1,,,2
008370,Egyetemi Tangazdaság,47.258643,18.949516,008370,1,,,2
008377,Nagykőrösi út / Határ út,47.456450,19.114660,008377,,,,2
008379,Kőbánya alsó vasútállomás,47.483886,19.127216,008379,,,,2
008381,Kőbánya alsó vasútállomás,47.484011,19.127574,008381,,,,2
008382,Örs vezér tere M+H,47.502448,19.136843,008382,,,,1
008383,Örs vezér tere M+H,47.502623,19.136654,008383,,,,1
008385,"Rákospalota, MÁV-telep",47.541308,19.121443,008385,,,,1
008399,Pestszentimre vasútállomás,47.404222,19.186489,008399,,,,1
008400,"Dunakeszi, Auchan áruház",47.608963,19.117347,008400,,,,2
008402,Kert sor,47.591122,19.045358,008402,,,,1
008403,Kert sor,47.591374,19.045384,008403,,,,1
008404,Csillaghegy H,47.584848,19.042059,008404,,,,1
008405,Csillaghegy H,47.584781,19.041862,008405,,,,1
008406,Forrásliget lakópark,47.581093,19.037502,008406,,,,1
008407,Forrásliget lakópark,47.581363,19.037795,008407,,,,1
008408,Ürömhegyi lejtő,47.577513,19.032133,008408,,,,2
008409,Ürömhegyi lejtő,47.577621,19.032040,008409,,,,2
008410,Aranyhegyi lejtő,47.572737,19.030301,008410,,,,1
008411,Aranyhegyi lejtő,47.572602,19.030088,008411,,,,1
008412,Bécsi út / Vörösvári út,47.548471,19.029180,008412,,,,1
008426,"Káposztásmegyer, Szilas-patak",47.577405,19.114927,008426,,,,2
008428,"Budakalász, Budai út",47.617063,19.051534,008428,,,,2
008429,"Budakalász, Budai út",47.616729,19.051767,008429,,,,1
008430,"Budakalász, Lenfonó H",47.620304,19.046374,008430,,,,1
008431,"Budakalász, Lenfonó H",47.621800,19.045662,008431,,,,1
008432,Szentistvántelep H,47.628444,19.043367,008432,,,,2
008433,Szentistvántelep H,47.627055,19.043879,008433,,,,2
008434,Pomáz H,47.643897,19.030357,008434,,,,1
008435,Pomáz H,47.642594,19.031459,008435,,,,2
008436,"Szentendre, Papírgyár",47.649031,19.069532,008436,,,,1
008437,Papírgyár,47.647762,19.069061,008437,,,,1
008438,Egyetem,47.652306,19.071738,008438,,,,1
008439,Egyetem,47.652067,19.071331,008439,,,,1
008440,Gubacsi út / Határ út,47.443626,19.096848,008440,,,,1
008447,Dióskert,47.425630,18.911984,008447,,,,2
008455,Jászai Mari tér,47.512811,19.047938,008455,,,,2
008458,Tisza István tér,47.517230,19.107350,008458,,,,1
008459,Uzsoki Utcai Kórház,47.519858,19.103689,008459,,,,1
008460,Uzsoki Utcai Kórház,47.519615,19.103476,008460,,,,1
008461,Erzsébet királyné útja / Róna utca,47.521586,19.101301,008461,,,,1
008462,Bretzfeld utca,47.460536,18.945898,008462,,,,1
008469,Gubacsi út / Határ út,47.444418,19.096583,008469,,,,2
008471,Dél-pesti autóbuszgarázs,47.426556,19.160782,008471,,,,1
008472,Dél-pesti autóbuszgarázs,47.426744,19.161140,008472,,,,1
008479,Homokbánya utca,47.399559,18.941035,008479,,,,2
008480,Petőfi Sándor utca,47.402470,18.937784,008480,,,,1
008481,Soroksár felső H,47.409980,19.111405,008481,,,,1
008486,Csonka János tér,47.470070,19.044795,008486,,,,1
008490,Határ út M,47.464567,19.126152,008490,,merged,MERGED_008490,1
008491,Jászberényi út,47.485496,19.192619,008491,,,,2
008498,Aszódi utca,47.463484,19.100991,008498,,,,1
008499,Közterületfenntartó Zrt.,47.467861,19.106659,008499,,,,1
008500,Ecseri út M,47.470487,19.108771,008500,,,,2
008501,Ferencvárosi rendelőintézet,47.476984,19.075559,008501,,,,1
008519,Tímár utca H,47.533299,19.043582,008519,,,,1
008521,Serfőző utca,47.538309,19.046968,008521,,,,1
008535,Cinkotai autóbuszgarázs,47.498194,19.237472,008535,,,,1
008544,Szépvölgyi út H,47.527615,19.040037,008544,,,,1
008545,Puskás Ferenc Stadion M,47.500105,19.107013,008545,,,008875,1
008546,Boráros tér H,47.479738,19.067812,008546,,,,2
008548,"Gyál, Bem József utca",47.372917,19.216769,008548,,,,1
008549,Kisfaludy Sándor utca,47.375008,19.213611,008549,,,,2
008550,Toldi Miklós utca,47.377334,19.210016,008550,,,,2
008551,Bacsó Béla utca,47.379533,19.206672,008551,,,,1
008552,Erdősor utca,47.383056,19.201876,008552,,,,2
008553,Bajcsy-Zsilinszky utca,47.385634,19.204439,008553,,,,2
008559,Korompai utca,47.484860,19.012485,008559,,,,1
008560,Korompai utca,47.484789,19.012843,008560,,,,1
008567,Gazdagréti tér,47.473277,18.992780,008567,,,,1
008569,Cinkotai autóbuszgarázs,47.498051,19.236675,008569,,,,2
008575,Távíró utca,47.461082,19.119025,008575,,,,1
008577,Rákoshegy vasútállomás,47.467934,19.244806,008577,,,,1
008587,Gyáli út,47.456472,19.111009,008587,,,,2
008588,Gyáli út,47.456293,19.110359,008588,,,,2
008589,Gyáli út,47.466010,19.103474,008589,,,,1
008590,Szent Gellért tér - Műegyetem M,47.483337,19.053086,008590,,,,1
008591,Szent Gellért tér - Műegyetem M,47.483616,19.053537,008591,,,,1
008593,Móricz Zsigmond körtér M,47.476836,19.047188,008593,,,,1
008595,Hungaroring,47.579181,19.275357,008595,1,,,
008597,Sport utca,47.455951,18.948135,008597,,,,1
008598,Baross utca,47.460313,18.958511,008598,,,,1
008605,Kolosy tér,47.527543,19.036916,008605,,,,1
008617,Pillangó utca,47.501297,19.119883,008617,1,,,2
008618,Puskás Ferenc Stadion,47.500389,19.107113,008618,1,,,2
008619,Keleti pályaudvar,47.499798,19.082670,008619,1,,,2
008620,Blaha Lujza tér,47.496986,19.070333,008620,1,,,2
008621,Astoria,47.494331,19.060097,008621,1,,,2
008622,Deák Ferenc tér,47.497716,19.054300,008622,1,,,2
008623,Kossuth Lajos tér,47.505520,19.046619,008623,1,,,2
008624,Batthyány tér,47.506462,19.038890,008624,1,,,2
008625,Széll Kálmán tér,47.506943,19.024803,008625,1,,,2
008626,Déli pályaudvar,47.500191,19.024951,008626,1,,,2
008642,Székesdűlő,47.611694,19.105926,008642,,,,1
008643,Székesdűlő,47.610958,19.103571,008643,,,,1
008644,Vízművek,47.599469,19.092788,008644,,,,2
008645,Vízművek,47.600323,19.093374,008645,,,,2
008646,Áruházi bekötőút,47.386510,19.022630,008646,,,,1
008647,Áruházi bekötőút,47.386519,19.023121,008647,,,,1
008649,"Székesdűlő, ipartelep",47.615155,19.109268,008649,,,,2
008650,"Székesdűlő, ipartelep",47.614760,19.108789,008650,,,,2
008651,Auchan Sziget áruház,47.384361,19.025810,008651,,,,1
008652,Auchan Sziget áruház,47.384163,19.025969,008652,,,,1
008670,Auchan Liget,47.541205,19.247030,008670,,,,2
008681,Hidegkuti Nándor Stadion,47.490533,19.110469,008681,,,,2
008684,Albertfalva kitérő,47.452747,19.038524,008684,,,,1
008685,Albertfalva kitérő,47.452720,19.038922,008685,,,,1
008690,Budaörs vasútállomás,47.448184,18.964863,008690,1,,,2
008691,Angeli utca / Nagytétényi út,47.390942,18.981735,008691,1,,,2
008692,Felsőcsatári köz,47.458756,19.177096,008692,,,,1
008694,Köztelek utca,47.486933,19.067178,008694,,,,2
008697,Újpest-központ M,47.560724,19.090125,008697,,,,1
008702,Ferencvárosi rendelőintézet,47.477155,19.075785,008702,,,,2
008708,Vízművek lakótelep,47.597742,19.091577,008708,,,,2
008724,Albertirsai út,47.500874,19.116122,008724,,,,2
008725,Puskás Ferenc Stadion M,47.499864,19.104836,008725,,,,1
008731,Budagyöngye,47.516074,18.998922,008731,,,,2
008736,Dániel út,47.512852,18.995009,008736,,,,2
008737,Dániel út,47.512834,18.994743,008737,,,,1
008740,Újbuda-központ M,47.474654,19.046424,008740,,,,1
008750,Batthyány tér M+H,47.505696,19.039323,008750,,,,1
008754,Pestszentimre vasútállomás (Dózsa Gy.u.),47.403548,19.185706,008754,,,,2
008770,Puskás Ferenc Stadion M,47.499864,19.104507,008770,,,,2
008772,Pestszentlőrinc vasútállomás,47.454622,19.181767,008772,,,,1
008775,Ilonatelep H,47.525775,19.228634,008775,,,,1
008782,Blaha Lujza tér M,47.496844,19.069066,008782,,,,1
008785,Puskás Ferenc Stadion M,47.499934,19.105183,008785,,,,1
008788,Kőérberek,47.445299,18.999585,008788,,,,2
008789,Kőérberek,47.445218,19.000036,008789,,,,2
008793,Regényes utca,47.429395,19.020648,008793,,,,1
008801,Savoya Park,47.436522,19.039985,008801,,,,1
008802,Savoya Park,47.435847,19.042385,008802,,,,1
008814,Mester utca / Könyves Kálmán körút,47.469445,19.082572,008814,,,,1
008822,"Budakalász, Auchan áruház",47.611510,19.062328,008822,1,,,2
008823,Szigetszentmárton-Szigetújfalu H,47.228749,18.946095,008823,1,,,2
008832,Szakorvosi rendelőintézet,47.443848,19.181104,008832,,,,1
008834,Szigetcsép H,47.270713,18.956612,008834,1,,,2
008835,Földváry utca,47.463385,19.083750,008835,1,,,2
008841,Íves út,47.592824,19.107979,008841,,,,1
008842,Íves út,47.592582,19.106650,008842,,,,1
008844,Egressy út / Vezér utca,47.519260,19.126312,008844,,,,1
008846,Méhecske utca,47.448009,18.947805,008846,,,,2
008847,Méhecske utca,47.447991,18.947991,008847,,,,2
008850,Mikszáth Kálmán utca,47.451147,19.176786,008850,,,,1
008863,Gőzmozdony utca,47.470028,19.157173,008863,,,,1
008864,Savoya Park,47.435991,19.041510,008864,,,,1
008865,Savoya Park,47.436324,19.041218,008865,,,,1
008866,Déli pályaudvar M,47.499912,19.026037,008866,,,,2
008873,Földváry utca,47.463133,19.083803,008873,1,,,2
008874,Timót utca,47.452167,19.091904,008874,1,,,2
008875,Puskás Ferenc Stadion M,47.500133,19.107035,008875,1,,,2
008893,Csepeli átjáró,47.436343,19.092559,008893,,,,2
008894,Vízisport utca,47.433933,19.091311,008894,,,,2
008895,Teremszeg utca,47.433006,19.092212,008895,,,,2
008896,Pesterzsébet vasútállomás,47.433409,19.096269,008896,,,,2
008898,Szakorvosi rendelő,47.440692,19.102002,008898,,,,2
008900,Göncz Árpád városközpont M,47.531877,19.066158,008900,,,,1
008903,Szentmihályi út,47.541348,19.151940,008903,,,,1
008904,Kétújfalu utca,47.419483,19.209137,008904,,,,1
008910,"Káposztásmegyer, Mogyoródi-patak",47.598312,19.121415,008910,,,,1
008911,Homoktövis iskola,47.597226,19.117132,008911,,,,1
008912,Hidegkuti Nándor Stadion,47.490255,19.110147,008912,,,,1
008914,Vágóhíd utca,47.473502,19.079577,008914,,,,1
008915,Jászberényi út / Maglódi út,47.490345,19.148417,008915,,,,1
008916,Kőbányai garázs,47.490630,19.114447,008916,,,,2
008917,Kőbányai garázs,47.490667,19.113836,008917,,,,2
008918,"Budatétény, benzinkút",47.430100,19.003628,008918,,,,2
008919,Pongrátz Gergely tér,47.509905,19.128276,008919,,,,1
008921,Dél-pesti autóbuszgarázs,47.426582,19.161021,008921,,,,2
008922,Gyula vezér út,47.409242,19.003434,008922,,,,2
008923,Kabai utca,47.495704,19.160464,008923,,,,1
008924,Kabai utca,47.495533,19.160424,008924,,,,1
008939,Békásmegyer H,47.598425,19.054240,008939,,,,1
008940,Békásmegyer H,47.598667,19.054107,008940,,,,1
008941,Váci út,47.561294,19.079376,008941,,,,1
008942,Örs vezér tere M+H (Kerepesi út),47.503207,19.137531,008942,,,,1
008943,"Budatétény, benzinkút",47.431018,19.004423,008943,,,,2
008944,Újpest-városkapu M (Váci út),47.556564,19.076623,008944,,,,1
008945,Újpest-városkapu M (Váci út),47.558092,19.076836,008945,,,,1
008946,Szénás utca,47.527548,19.181565,008946,,,,1
008947,Szlovák út,47.530956,19.189170,008947,,,,1
008948,Kucorgó tér,47.469348,19.295123,008948,,,,1
008949,Pestszentimre vasútáll. (Nagykőrösi út),47.403412,19.186620,008949,,,,1
008950,Pestszentimre vasútáll. (Nagykőrösi út),47.404303,19.185682,008950,,,,1
008951,Béke tér,47.430006,19.215624,008951,,,,2
008952,Terv utca,47.408000,19.001541,008952,,,,1
008953,Csillag utca,47.408474,19.119154,008953,,,,1
008954,Csillag utca,47.409562,19.118997,008954,,,,1
008955,Gombosszeg köz,47.413107,19.118352,008955,,,,1
008956,Gombosszeg köz,47.413574,19.118578,008956,,,,2
008957,Előd utca,47.418567,19.117379,008957,,,,2
008958,Alsó határút,47.416543,19.116568,008958,,,,2
008959,Templom utca 6.,47.408837,19.113563,008959,,,,1
008960,Gyáli-patak,47.394732,19.116579,008960,,,,1
008961,"Soroksár, Hősök tere H",47.399283,19.116413,008961,,,,1
008962,Szent István utca H,47.392547,19.115361,008962,,,,2
008963,Grassalkovich út,47.390521,19.118865,008963,,,,1
008964,Szent László utca / Tartsay utca,47.421259,19.127136,008964,,,,1
008965,Szent László utca / Tartsay utca,47.421196,19.126871,008965,,,,1
008967,Szentlőrinci úti lakótelep,47.416876,19.131290,008967,,,,1
008971,Gyula vezér út,47.409629,19.004123,008971,,,,1
009000,Kistarcsa H,47.545503,19.259839,009000,,,,2
009001,Kistarcsa H,47.545584,19.259693,009001,,,,2
009002,Kerepes H,47.552441,19.270507,009002,,,,2
009003,Kerepes H,47.551324,19.268897,009003,,,,2
009004,Szilasligeti elágazás,47.560201,19.283112,009004,,,,2
009005,"Kerepes, Szabadság útja",47.560809,19.282727,009005,,,,1
009006,Szilasligeti elágazás,47.560766,19.283700,009006,,,,2
009007,"Szilasliget, Posta",47.569550,19.272176,009007,,,,2
009008,"Szilasliget, Posta",47.569850,19.272388,009008,,,,2
009009,"Szilasliget, Wesselényi utca",47.573117,19.269227,009009,,,,2
009010,"Szilasliget, Wesselényi utca",47.572905,19.269251,009010,,,,2
009011,"Szilasliget, Szondi utca",47.575273,19.266059,009011,,,,2
009012,"Szilasliget, Szondi utca",47.575376,19.265659,009012,,,,2
009013,"Szilasliget, Kemping",47.578226,19.261133,009013,,,,2
009014,EGIS-telep (Szentjakab H),47.592911,19.284773,009014,,,,2
009015,EGIS-telep (Szentjakab H),47.592534,19.285513,009015,,,,2
009016,"Gödöllő, Szökőkút",47.599144,19.346673,009016,,,,1
009017,"Gödöllő, Szabadság tér H",47.599243,19.346771,009017,,,,2
009018,"Gödöllő, Szabadság tér H",47.598009,19.349108,009018,,,,2
009019,"Gödöllő, Palotakert H",47.598734,19.355678,009019,,,,2
009020,"Gödöllő, Palotakert H",47.598679,19.356116,009020,,,,2
009021,Gödöllő H,47.593416,19.357620,009021,,,,1
009022,Mogyoród H,47.595557,19.271513,009022,,,,2
009025,Zichy Jenő utca,47.505192,19.057853,009025,,,,1
009026,Zichy Jenő utca,47.505246,19.057588,009026,,,,1
009031,"Margit híd, budai hídfő H",47.514815,19.035801,009031,,,,1
009039,Csanády utca (Lehel tér M),47.515850,19.058891,009039,,,,1
009041,Haller utca / Soroksári út,47.475726,19.069363,009041,,,,1
009042,Haller utca / Soroksári út,47.475447,19.069562,009042,,,,1
009047,Homoktövis utca / Megyeri út,47.594692,19.113273,009047,,,,1
009065,"Solymár, Szarvas",47.596341,18.973637,009065,,,,2
009066,"Solymár, Szarvas",47.596135,18.974741,009066,,,,2
009074,Használtcikk piac,47.435510,19.145159,009074,,,,1
009085,Budaörs vasútállomás,47.448166,18.964870,009085,,,008690,1
009094,Petőfi Sándor utca,47.402451,18.937042,009094,,,,1
009095,Pacsirta utca,47.404562,18.933977,009095,,,,1
009096,Pacsirta utca,47.404616,18.933765,009096,,,,2
009097,Nóra utca,47.407239,18.930884,009097,,,,2
009098,Nóra utca,47.407275,18.930738,009098,,,,2
009099,Katinka utca,47.410428,18.926876,009099,,,,2
009100,Katinka utca,47.410123,18.927181,009100,,,,2
009101,Tátika utca,47.412860,18.930262,009101,,,,2
009102,Tátika utca,47.412824,18.929984,009102,,,,2
009103,Valéria utca,47.414113,18.932830,009103,,,,2
009104,Valéria utca,47.414086,18.932618,009104,,,,2
009105,"Diósd, Búzavirág utca",47.416567,18.934213,009105,,,,2
009119,Szentendre H,47.659618,19.074522,009119,,,,1
009137,Újmajori utca,47.471697,19.220067,009137,,,,1
009138,Csillagmotor köz,47.471020,19.221815,009138,,,,1
009139,Dedics Ferenc utca,47.469097,19.226094,009139,,,,1
009140,Ősrepülő utca,47.469563,19.227170,009140,,,,1
009145,Haller utca / Mester utca,47.475922,19.077827,009145,,,,1
009146,Vágóhíd utca,47.473628,19.079643,009146,,,,1
009147,Vörösmarty utca,47.419869,19.120349,009147,,,,1
009148,Szusza Ferenc Stadion,47.575692,19.083757,009148,,,,1
009153,Óbudai rendelőintézet,47.545359,19.033751,009153,,,,1
009154,Atlétikai stadion,47.572575,19.114429,009154,,,,2
009155,Atlétikai stadion,47.572180,19.114150,009155,,,,2
009160,Keleti pályaudvar M,47.499449,19.083401,009160,,,,1
009161,Keleti pályaudvar M,47.499431,19.084012,009161,,,,1
009162,Keleti pályaudvar M,47.499926,19.083216,009162,,,,1
009163,Keleti pályaudvar M,47.499926,19.083587,009163,,,,1
009166,Magdolna utca,47.492763,19.087670,009166,,,,1
009170,"Pomáz, Dózsa György utca",47.645570,19.027226,009170,,,,1
009171,"Pomáz, Dózsa György utca",47.645554,19.027001,009171,,,,1
009172,Piski utca / Bártfai utca,47.501188,19.258520,009172,,,,2
009174,Széll Kálmán tér M,47.507673,19.024894,009174,,,,1
009179,"Petőfi híd, budai hídfő",47.476798,19.058923,009179,,,,1
009192,Kacsóh Pongrác utca,47.396467,19.208697,009192,,,,2
009193,Kacsóh Pongrác utca,47.396853,19.208738,009193,,,,1
009194,Széchenyi utca / Ady Endre utca,47.389932,19.217935,009194,,,,1
009195,Széchenyi utca / Ady Endre utca,47.390177,19.217708,009195,,,,1
009196,Széchenyi utca / Vecsési út,47.381846,19.230727,009196,,,,1
009197,Bocskai István utca / Széchenyi utca,47.383397,19.228295,009197,,,,1
009198,Somogyi Béla utca / Széchenyi utca,47.386832,19.222956,009198,,,,1
009199,Mátyás király utca,47.394710,19.210533,009199,,,,1
009200,Mátyás király utca,47.394883,19.210398,009200,,,,1
009201,Tulipán utca,47.392574,19.213824,009201,,,,1
009202,Tulipán utca,47.392177,19.214604,009202,,,,1
009203,"Gyál, Deák Ferenc utca",47.385265,19.235533,009203,,,,1
009204,Árpád utca,47.388079,19.231106,009204,,,,1
009205,Dobó Katica utca / Deák Ferenc utca,47.389747,19.228502,009205,,,,1
009206,Táncsics Mihály utca,47.392099,19.224843,009206,,,,1
009207,Kossuth Lajos utca,47.391718,19.221172,009207,,,,1
009208,"Pestszentlőrinc, Szarvas csárda tér",47.441307,19.185114,009208,,,,1
009220,Móricz Zsigmond körtér M,47.477499,19.048349,009220,,,,1
009225,Noszlopy utca,47.471898,19.148435,009225,,,,1
009230,Deák Ferenc tér M,47.497638,19.053021,009230,,,,1
009234,Pestszentimre vasútállomás (Nemes utca),47.404518,19.187166,009234,,,,1
009238,Szent Korona utca,47.525735,19.169802,009238,,,,1
009239,Csömöri út,47.528031,19.167497,009239,,,,1
009240,Sasvár utca,47.518294,19.180653,009240,,,,2
009241,Margit utca,47.515113,19.185325,009241,,,,1
009243,Alsó határút,47.416184,19.116209,009243,,,,2
009289,Gergely utca,47.468754,19.154451,009289,,,,1
009290,Közvágóhíd H,47.466497,19.075739,009290,,,,1
009292,"Szigetszentmiklós, városháza",47.348602,19.044724,009292,,,,1
009295,Serfőző utca,47.539095,19.045373,009295,,,,1
009300,Népliget M,47.474611,19.097765,009300,,,,
009301,Gárdonyi Géza utca,47.405402,18.947780,009301,,,,1
009309,Deák Ferenc tér M,47.497449,19.055715,009309,,,,1
009311,"BILK, bekötőút",47.378957,19.129179,009311,,,,2
009312,MNB,47.376882,19.124303,009312,,,,2
009314,"BILK, DF épület",47.375229,19.120911,009314,,,,2
009315,MNB,47.376675,19.124382,009315,,,,2
009321,Keleti pályaudvar M,47.499926,19.084198,009321,,,,1
009322,Örs vezér tere M+H (Kerepesi út),47.503260,19.137956,009322,,,,1
009337,Orbánhegyi dűlő,47.386335,19.110172,009337,,,,1
009338,Orbánhegyi dűlő,47.386389,19.110490,009338,,,,1
009339,Szent István utca H,47.391055,19.114151,009339,,,,1
009349,Budaörsi repülőtér,47.447065,18.986709,009349,,,,2
009351,Kőérberek,47.446333,18.998537,009351,,,,1
009352,Kőérberek,47.446180,18.998775,009352,,,,1
009353,Tippan utca,47.447962,19.000789,009353,,,,1
009354,Tippan utca,47.447746,19.000378,009354,,,,1
009355,Régi vám (Kánai út),47.446389,19.003986,009355,,,,1
009356,Régi vám (Kánai út),47.446200,19.004052,009356,,,,1
009358,Millenniumtelep H,47.379529,19.104152,009358,,,,2
009359,Boráros tér H,47.479729,19.066486,009359,,,,1
009365,Zsil utca,47.482716,19.062997,009365,,,,1
009369,"Csepel, Horgásztanya",47.388344,19.103486,009369,,,,1
009373,Hunyadvár utca / Jókai Mór utca,47.508153,19.192136,009373,,,,2
009375,Szilas-patak,47.529297,19.185461,009375,,,,1
009376,"Újpalota, Nyírpalota út",47.547013,19.142015,009376,,,,1
009377,Jókai Mór utca (Rendőrség),47.510358,19.190456,009377,,,,1
009379,József utca,47.532080,19.155893,009379,,,,1
009381,Rózsa utca,47.515819,19.155767,009381,,,,1
009382,Jávorfa utca,47.525996,19.177844,009382,,,,1
009383,János utca,47.523555,19.172340,009383,,,,1
009412,Karolina út,47.473505,19.034394,009412,,,,1
009413,Ezredes utca,47.510038,19.021760,009413,,,,1
009415,Sárfű utca,47.550084,19.138128,009415,,,,1
009420,Honvédkórház,47.531561,19.070886,009420,,,,1
009421,Ezred utca,47.605951,19.097621,009421,,,,1
009422,Ezred utca,47.606849,19.098223,009422,,,,2
009425,Csonka János tér,47.470543,19.045296,009425,,,,1
009426,Zugló vasútállomás,47.511873,19.099618,009426,,,,1
009427,Kelenföldi autóbuszgarázs,47.473226,19.029552,009427,,,,1
009429,Keserűvíztelep (Bobpálya),47.454755,19.007519,009429,,,,2
009430,Keserűvíztelep (Bobpálya),47.453847,19.007547,009430,,,,2
009431,Régi vám,47.446768,19.006041,009431,,,,2
009438,"Budakeszi, Honfoglalás sétány",47.517751,18.923769,009438,,,,1
009439,Zichy Péter utca,47.515575,18.922359,009439,,,,1
009440,Zichy Péter utca,47.516133,18.922570,009440,,,,2
009442,Széchenyi utca (gimnázium),47.512067,18.928677,009442,,,,2
009443,Széchenyi utca (gimnázium),47.512028,18.927518,009443,,,,2
009445,Tatárka utca,47.433982,19.021176,009445,,,,1
009446,Botond utca,47.404076,18.996178,009446,,,,1
009447,Mátyás király utca,47.404443,18.991581,009447,,,,2
009448,Görgey utca,47.406773,18.991631,009448,,,,2
009449,Török utca,47.411737,18.989837,009449,,,,1
009451,Gyűszű utca,47.417266,19.022400,009451,,,,2
009452,Húr utca,47.416159,19.020426,009452,,,,2
009453,Dévény utca,47.415224,19.022189,009453,,,,2
009454,Wesselényi utca,47.415917,19.026059,009454,,,,2
009455,Ostor utca,47.416544,19.029864,009455,,,,1
009456,Római utca,47.417930,19.017589,009456,,,,2
009457,Római utca,47.417175,19.018319,009457,,,,2
009458,Hűség utca,47.421208,19.013469,009458,,,,1
009459,Hűség utca,47.420529,19.014023,009459,,,,2
009460,Komáromi út,47.424593,19.010866,009460,,,,2
009461,Komáromi út,47.424032,19.011122,009461,,,,1
009462,Tanító utca,47.435283,19.008714,009462,,,,1
009463,Tanító utca,47.435274,19.009762,009463,,,,2
009465,Plébánia utca,47.429730,19.032298,009465,,,,2
009466,Plébánia utca,47.429631,19.032245,009466,,,,1
009467,Galamb utca,47.432734,19.028520,009467,,,,1
009468,Galamb utca,47.432671,19.028467,009468,,,,1
009469,Alkotmány utca,47.433444,19.025921,009469,,,,1
009470,Alkotmány utca,47.433354,19.025948,009470,,,,1
009471,Széchenyi utca,47.418185,19.032578,009471,,,,2
009472,Promontor utca,47.418055,19.027015,009472,,,,1
009473,Széchenyi utca,47.418464,19.032657,009473,,,,2
009474,Komló utca,47.421339,19.035137,009474,,,,2
009475,Méhész utca,47.438572,19.034695,009475,,,,2
009478,Szent Lőrinc-telep,47.432106,19.172930,009478,,,,2
009479,Szent Lőrinc-telep,47.432106,19.173155,009479,,,,2
009480,Margó Tivadar utca,47.433274,19.177803,009480,,,,1
009481,Kerékgyártó utca,47.521341,19.105562,009481,,,,1
009482,Kucorgó tér,47.469059,19.295984,009482,,,,2
009483,Rákoscsaba vasútállomás,47.491097,19.281623,009483,,,,1
009484,Tura utca,47.489200,19.276864,009484,,,,1
009485,Rákoscsaba-Újtelep vasútállomás,47.488137,19.273290,009485,,,,1
009486,II. utca,47.486290,19.265546,009486,,,,2
009487,Rákosliget vasútállomás,47.486311,19.259071,009487,,,,1
009491,Füstifecske utca,47.478911,19.236966,009491,,,,1
009492,Füstifecske utca,47.478776,19.237124,009492,,,,1
009493,Uszoda,47.479619,19.232975,009493,,,,1
009494,"Újlak utca, lakótelep",47.482307,19.233674,009494,,,,1
009495,Rákospatak utca,47.531435,19.100660,009495,,,,1
009498,Csertő utca,47.511043,19.146053,009498,,,,1
009499,Csertő utca,47.511465,19.147169,009499,,,,1
009500,Körvasút sor,47.513665,19.151090,009500,,,,1
009501,Körvasút sor,47.514590,19.152804,009501,,,,1
009503,Kovácsi Kálmán tér,47.573138,19.121088,009503,,,,1
009504,Kovácsi Kálmán tér,47.573309,19.121115,009504,,,,1
009508,Orló utca,47.518280,19.007492,009508,,,,1
009509,Orló utca,47.518145,19.007399,009509,,,,1
009510,Gábor Áron utca / Pasaréti út,47.516184,19.004033,009510,,,,1
009511,Gábor Áron utca / Pasaréti út,47.516355,19.003967,009511,,,,1
009512,Endrődi Sándor utca,47.521143,19.011996,009512,,,,1
009513,Bimbó út / Gábor Áron utca,47.519325,19.008996,009513,,,,1
009514,Bimbó út / Gábor Áron utca,47.519964,19.010576,009514,,,,1
009515,Rákospalota-Újpest vasútállomás,47.566389,19.111644,009515,,,,1
009516,Rákospalota-Újpest vasútállomás,47.566191,19.111737,009516,,,,1
009520,Csörsz utca,47.490152,19.023509,009520,,,,1
009521,Csörsz utca,47.490008,19.023668,009521,,,,1
009522,MOM Kulturális Központ,47.490528,19.018519,009522,,,,1
009524,Albertfalva vasútállomás,47.441881,19.032202,009524,,,,2
009531,Ifjúság útja,47.501492,19.104004,009531,,,,2
009532,Puskás Ferenc Stadion M,47.500079,19.106565,009532,,,,2
009534,XIII. utca / Dózsa György út,47.411163,18.993654,009534,,,,2
009536,"Káposztásmegyer, Mogyoródi-patak",47.598690,19.121323,009536,,,,2
009537,Március 15. tér,47.491540,19.051322,009537,,,,1
009538,Irány utca,47.540469,19.109767,009538,,,,1
009539,Boglár utca,47.594701,19.060994,009539,,,,1
009540,Szilágyi Erzsébet fasor,47.515203,19.002149,009540,,,,1
009541,Ady Endre út,47.436278,19.035478,009541,,,,1
009543,513. utca,47.484291,19.230112,009543,,,,1
009544,Robogó utca,47.487235,19.270088,009544,,,,1
009546,Memento Park,47.425566,19.001432,009546,,,,1
009548,Tatárka utca,47.433883,19.021083,009548,,,,1
009549,Madárdomb köz,47.478076,19.241208,009549,,,,1
009550,Madárdomb köz,47.477987,19.241128,009550,,,,1
009551,Margó Tivadar utca,47.433123,19.176437,009551,,,,1
009554,"Óbuda, Bogdáni út",47.550028,19.041176,009554,,,,1
009555,Szilágyi utca,47.570571,19.112699,009555,,,,1
009557,Vécsey Károly utca / Nádor utca,47.571892,19.096021,009557,,,,1
009558,Szent János Kórház,47.509962,19.009919,009558,,,,1
009563,Mészkő utca,47.579213,19.034844,009563,,,,1
009564,Mészkő utca,47.579051,19.034127,009564,,,,1
009566,"Soroksár, Auchan áruház",47.417213,19.158245,009566,,,,1
009568,Sósmocsár út,47.414805,19.134083,009568,,,,1
009569,Thököly út,47.441995,19.180980,009569,,,,1
009570,Újbuda-központ M,47.474163,19.047050,009570,,,,1
009572,Bagaria utca,47.590199,19.083142,009572,,,,1
009573,Bagaria utca,47.590307,19.083674,009573,,,,1
009574,Ungvári utca,47.587474,19.082223,009574,,,,1
009575,Ungvári utca,47.587313,19.081890,009575,,,,1
009576,Rév utca,47.584794,19.081689,009576,,,,2
009577,Savoya Park,47.436603,19.039548,009577,,,,1
009578,Savoya Park,47.436656,19.039269,009578,,,,1
009581,Gábor Áron utca,47.514978,19.002123,009581,,,,1
009582,János tér,47.441996,19.102521,009582,,,,1
009584,Békásmegyer H,47.597444,19.055543,009584,,,,1
009586,Baross utca,47.436340,19.098763,009586,,,,1
009587,Gogol utca,47.520447,19.056980,009587,,,,1
009588,Kuruclesi út,47.518001,18.985232,009588,,,,1
009592,Kőbánya-Kispest M,47.464152,19.146197,009592,,,,1
009611,Hidegkuti Nándor Stadion,47.490210,19.109593,009611,,,,2
009625,Szigetcsép utca,47.464407,19.312701,009625,,,,1
009629,Batthyány tér M+H,47.505588,19.039284,009629,,,,1
009630,"Budakalász, Auchan áruház",47.611510,19.062341,009630,,,008822,1
009631,Gergely utca 80.,47.474051,19.144354,009631,,,,1
009632,Nagykőrösi út / Határ út,47.456381,19.114232,009632,,,,2
009634,Cinkotai autóbuszgarázs (kapu),47.498634,19.237646,009634,,,,
009636,Kelenföldi autóbuszgarázs (kapu),47.473264,19.029397,009636,,,,
009637,Óbudai autóbuszgarázs (Pomázi kapu),47.568220,19.027770,009637,,,,
009638,Kőbányai garázs (Salgótarjáni kapu),47.491008,19.114239,009638,,,,
009639,Kelenföld kocsiszín (Csóka kapu),47.470139,19.027137,009639,,,,
009645,Zugló kocsiszín (kapu),47.518909,19.112583,009645,,,,
009652,Széchenyi út,47.545721,19.112403,009652,,,,1
009659,Mélyfúró utca,47.577512,19.129774,009659,,,,1
009667,Újbuda-központ M,47.474064,19.048204,009667,,,,1
009675,Clark Ádám tér,47.497665,19.041541,009675,,,,1
009676,Clark Ádám tér,47.497359,19.041594,009676,,,,1
009684,"Rákoskeresztúr, városközpont",47.478941,19.256176,009684,,,,1
009685,Akácvirág utca (egészségház),47.477351,19.255241,009685,,,,1
009691,Flórián tér,47.539901,19.042054,009691,,,,1
009692,Szentlélek tér H,47.539937,19.046755,009692,,,,1
009693,Kolosy tér,47.527678,19.036823,009693,,,,2
009698,Székács utca,47.498370,19.015183,009698,,,,1
009699,Székács utca,47.498245,19.015329,009699,,,,1
009702,Magdolna utca,47.492988,19.087193,009702,,,,1
009704,Jászivány utca,47.495409,19.275378,009704,,,,1
009705,Tura utca / Diadal utca,47.494390,19.272268,009705,,,,1
009706,XVIII. utca,47.491598,19.259995,009706,,,,1
009707,Aranykút utca,47.493758,19.277998,009707,,,,1
009708,Rákoscsaba vasútállomás,47.491547,19.281890,009708,,,,1
009709,Újbuda-központ M,47.474406,19.045497,009709,,,,1
009715,Zodony utca,47.430331,19.099898,009715,,,,2
009716,Pesterzsébet vasútállomás,47.433454,19.095738,009716,,,,2
009717,Zamárdi utca,47.434256,19.093472,009717,,,,1
009718,Vízisport utca,47.434463,19.091352,009718,,,,1
009719,Csepeli átjáró,47.436351,19.093381,009719,,,,1
009728,Zsigmond utca,47.463981,19.318336,009728,,,,1
009729,Zsigmond utca,47.463973,19.317686,009729,,,,2
009730,Széll Kálmán tér M,47.506881,19.023541,009730,,,,1
009743,MOM Kulturális Központ,47.490349,19.019528,009743,,,,1
009747,"Ezred utca, lakótelep",47.609007,19.101441,009747,,,,1
009748,Európa Center,47.605157,19.103711,009748,,,,1
009753,Blaha Lujza tér M (Népszínház utca),47.495999,19.071283,009753,,,,2
009763,Zsófialiget H,47.548044,19.263894,009763,,,,2
009764,Zsófialiget H,47.547898,19.263369,009764,,,,2
009774,Jászberényi út / Maglódi út,47.489886,19.148828,009774,,,,1
011302,Farkas-erdő (Állatsziget),47.586742,19.103401,011302,,,,1
011313,Szent László utca,47.405823,18.999264,011313,,,,1
011316,Atlétikai stadion,47.572468,19.113937,011316,,,,2
011317,Atlétikai stadion,47.572108,19.113950,011317,,,,2
011319,Móricz Zsigmond körtér M,47.477527,19.048628,011319,,,,1
011320,Búza utca,47.553410,19.040272,011320,,,,1
011321,Búza utca,47.551863,19.039634,011321,,,,1
011322,"Óbuda, Bogdáni út",47.549830,19.041189,011322,,,,1
011325,Halászbástya (Schulek Frigyes lépcső),47.502240,19.035339,011325,,,,2
011327,Budaörsi Ipari és Technológiai Park,47.463310,18.894407,011327,,,,2
011495,Kék Golyó utca,47.497895,19.019895,011495,,,,1
011577,"Soroksár, központi raktárak",47.378703,19.130043,011577,,,,2
011582,Verseny utca,47.501778,19.088408,011582,,,,2
011715,509. utca,47.484937,19.225470,011715,,,,1
011722,"Rákoskeresztúr, városközpont",47.479663,19.254959,011722,,,,1
011723,"Rákoskeresztúr, városközpont",47.479536,19.255542,011723,,,,1
011724,"Rákoskeresztúr, városközpont",47.479373,19.256098,011724,,,,1
011725,"Rákoskeresztúr, városközpont",47.479815,19.255331,011725,,,,1
011726,"Rákoskeresztúr, városközpont",47.479942,19.254761,011726,,,,1
011727,Rákospatak utca / Csömöri út,47.524636,19.117028,011727,,,,1
011732,Deák Ferenc tér M,47.499212,19.053658,011732,,,,1
011754,Rákospatak utca / Csömöri út,47.524275,19.117811,011754,,,,1
011762,Újpest-városkapu M,47.559063,19.078803,011762,,,,1
011765,Boráros tér H,47.479285,19.067812,011765,,,,2
011768,"Rákoscsaba-Újtelep, Tóalmás utca",47.499272,19.286768,011768,,,,2
011773,Keresztúri út,47.484637,19.227764,011773,,,,1
016725,Rózsaliget,47.466591,19.158440,016725,,,,2
016727,Újbuda-központ M,47.474649,19.046771,016727,,,,1
016729,Naphegy tér,47.493472,19.032796,016729,,,,1
016764,Kalotaszeg utca,47.458684,19.041056,016764,,,,1
016938,"Erzsébet királyné útja, aluljáró",47.517865,19.094459,016938,,,,1
019313,Rákoskert vasútállomás,47.457296,19.295147,019313,,,,1
019314,Schell Gyuláné tér,47.459805,19.299349,019314,,,,1
019316,Rákoscsaba vasútállomás,47.491050,19.282830,019316,,,,1
022005,Tölgy utca,47.416403,19.205417,022005,,,,1
022006,Szenes Iván tér,47.479946,19.095674,022006,,,,2
022814,Móricz Zsigmond körtér M,47.478192,19.044635,022814,,,,1
030328,"Soroksár, Hősök tere H",47.399367,19.115423,030328,,,,1
031884,"Nagykovácsi, Tisza István tér",47.575789,18.879511,031884,,,,1
036236,Szigetszentmiklós H,47.345454,19.048205,036236,,,,1
036678,Széll Kálmán tér M,47.506710,19.025240,036678,,,,1
037747,"Lakihegy, Cseresznyés utca",47.377332,19.007248,037747,,,,1
037748,"Lakihegy, Cseresznyés utca",47.376792,19.006348,037748,,,,1
038670,Kőbánya-Kispest M,47.462319,19.148576,038670,,,,1
038671,Kőbánya-Kispest M,47.462283,19.148324,038671,,,,1
038673,Kőbánya-Kispest M,47.462624,19.149068,038673,,,,1
038674,Kőbánya-Kispest M,47.462967,19.147663,038674,,,,1
038675,Kőbánya-Kispest M,47.463193,19.147318,038675,,,,1
038678,Kőbánya-Kispest M,47.463048,19.147901,038678,,,,1
038680,Kőbánya-Kispest M,47.462922,19.148405,038680,,,,1
038681,Kőbánya-Kispest M,47.462795,19.149055,038681,,,,1
038682,Kőbánya-Kispest M,47.462840,19.149201,038682,,,,1
038683,Kőbánya-Kispest M,47.462976,19.148644,038683,,,,1
038686,Kőbánya-Kispest M,47.463435,19.147345,038686,,,,1
038687,Kőbánya-Kispest M,47.463282,19.147981,038687,,,,1
038688,Kőbánya-Kispest M,47.463174,19.148379,038688,,,,1
038693,Kőbánya-Kispest M,47.462935,19.148914,038693,,,,1
038717,Deák Ferenc tér M,47.499032,19.054030,038717,,,,1
040525,Hentes utca,47.462276,19.084570,040525,,,,1
040526,Hentes utca,47.462600,19.084411,040526,,,,1
040591,FESTO,47.564606,19.030822,040591,,,,1
040608,Zsivora park,47.509134,19.148798,040608,,,,1
040609,Szent Imre tér H,47.431780,19.067901,040609,,,,1
040612,Bányató utca,47.466279,19.165031,040612,,,,1
040760,Kálvin tér,47.489830,19.061280,040760,1,,,1
040789,Kerékgyártó utca,47.520990,19.106438,040789,,,,1
041071,Nagyvárad tér M,47.479202,19.088416,041071,,,,2
041092,Csepeli Kórház,47.424595,19.058701,041092,,,,1
041093,Duna-lejáró,47.428013,19.058927,041093,,,,2
041094,Színesfém utca,47.430513,19.064640,041094,,,,1
041095,Szent Imre tér H,47.432014,19.067358,041095,,,,1
041139,Mázsa utca,47.483115,19.122863,041139,,,,1
041140,Mázsa utca,47.482980,19.122823,041140,,,,1
041209,Boráros tér H,47.479297,19.066963,041209,,,,2
042797,Bányató utca,47.465391,19.162933,042797,,,,1
042933,Népliget M,47.475851,19.100552,042933,,,,1
042934,"Soroksár, BILK",47.378287,19.121299,042934,,,,2
043154,Dél-pesti autóbuszgarázs (kapu),47.426902,19.160697,043154,,,,
043176,Kőbánya-Kispest M,47.461995,19.149491,043176,,,,1
043191,Bosnyák tér,47.519332,19.112783,043191,,,,1
043192,Kisvárda utca,47.471587,19.282412,043192,,,,1
043193,Kisvárda utca,47.471324,19.283632,043193,,,,1
043331,Szentlőrinci úti lakótelep,47.417200,19.130774,043331,,,,2
043333,Szent Orbán tér,47.498503,19.008136,043333,,,,2
043341,György utca,47.530940,19.171561,043341,,,,1
043342,Illyés Gyula utca,47.559188,19.122464,043342,,,,1
043343,Csörsz utca,47.490620,19.024650,043343,,,,1
043481,"Káposztásmegyer, Aquaworld",47.599639,19.112654,043481,,,,1
043548,Csaba vezér tér,47.487256,19.286582,043548,,,,1
043554,Enying utca,47.475377,19.297911,043554,,,,2
043555,Sport tér,47.477046,19.295809,043555,,,,2
043556,Rés utca,47.480202,19.291870,043556,,,,2
043571,Dukát utca,47.408202,18.991007,043571,,,,1
043746,Kőbányai garázs (Pongrácz kapu),47.492390,19.119545,043746,,,,
043955,Óbudai autóbuszgarázs (Törökkő kapu),47.566890,19.031889,043955,,,,
044029,Fenyőgyöngye,47.540451,19.006603,044029,,,,2
044032,"Szigetszentmiklós, városháza",47.348053,19.044870,044032,,,,1
044033,József Attila utca,47.338022,19.039575,044033,,,,1
044034,József Attila utca,47.338114,19.038215,044034,,,,2
044076,Déli utca,47.423183,19.061152,044076,,,,1
044115,Pöttyös utca M,47.468428,19.116027,044115,,,,1
044125,Cinkota H,47.520013,19.220542,044125,,,,1
044126,Száva kocsiszín,47.466764,19.123039,044126,,,,1
044127,Száva kocsiszín,47.466395,19.123091,044127,,,,2
044128,Valéria tér,47.466143,19.115666,044128,,,,1
044129,Napfény utca,47.458570,19.114343,044129,,,,1
044130,Madzsar József utca / Pünkösdfürdő utca,47.595615,19.054238,044130,,,,1
044131,Madzsar József utca / Pünkösdfürdő utca,47.595552,19.054065,044131,,,,1
044135,Íves út,47.593086,19.107022,044135,,,,1
044178,Szent Gellért-templom,47.469313,19.025800,044178,,,,2
044192,Békásmegyer H,47.597795,19.053787,044192,,,,1
044301,Orczy tér (Baross kocsiszín),47.489477,19.090708,044301,,,,2
044368,Örs vezér tere,47.502847,19.135600,044368,1,,,2
044371,"Budakeszi, Tesco áruház",47.500234,18.916821,044371,,,,2
044372,"Solymár, Kerekhegy",47.581416,18.926389,044372,,,,2
044375,"Budaliget, Géza fejedelem útja",47.567575,18.936282,044375,,,,1
044380,Dózsa György tér,47.507193,18.922432,044380,,,,1
044381,Dózsa György tér,47.507040,18.922366,044381,,,,2
044382,"Budakeszi, Tiefenweg utca",47.503935,18.921006,044382,,,,1
044383,"Budakeszi, Tiefenweg utca",47.503557,18.921167,044383,,,,1
044388,"Soroksár, Auchan áruház",47.419788,19.155599,044388,,,,1
044511,"Solymár, PEMÜ",47.597409,18.928240,044511,,,,2
044557,"Újpest, Árpád út hajóállomás",47.562796,19.078314,044557,,,,1
044601,"Solymár, Auchan áruház",47.598851,18.962078,044601,,,,1
044602,"Solymár, temető",47.594948,18.940930,044602,,,,1
044603,"Solymár, temető",47.595001,18.940212,044603,,,,1
044637,Görögkatolikus templom,47.423117,19.078036,044637,,,,1
044638,Görögkatolikus templom,47.424034,19.077997,044638,,,,1
045755,Maros utca,47.418292,19.138131,045755,,,,1
045776,Szenes Iván tér,47.479730,19.095859,045776,,,,2
045883,"Fót, Auchan áruház",47.580948,19.161548,045883,,,,1
047670,Budakeszi temető,47.514029,18.923053,047670,,,,2
047712,Károlyi Sándor út,47.585272,19.132112,047712,,,,2
047806,Savoya Park,47.436081,19.041549,047806,,,,1
047875,Orczy tér (Baross kocsiszín),47.489544,19.090388,047875,,,,2
047985,Szőlőskert utca,47.502140,18.916538,047985,,,,2
048277,Kőbánya alsó vasútállomás,47.483130,19.127785,048277,,,,2
048278,Művész út,47.495845,18.982385,048278,,,,2
048279,"Széchenyi-hegy, Gyermekvasút",47.495231,18.979453,048279,,,,2
048302,Diósdi út,47.433749,18.925165,048302,,,,2
048303,Diósdi út,47.433937,18.924939,048303,,,,2
048304,Liliom utca,47.431485,18.927729,048304,,,,2
048305,Liliom utca,47.430955,18.928340,048305,,,,2
048471,Pasaréti tér,47.523609,18.994082,048471,,,,1
048505,Szent István Bazilika,47.500141,19.054665,048505,,,,1
048506,Szent István Bazilika,47.500273,19.055025,048506,,,,1
048519,"Rákospalota, Kossuth utca",47.568485,19.125534,048519,,,,1
048536,Lehel tér M,47.517759,19.060445,048536,,,,2
048621,"Széna tér, tároló",47.508681,19.027708,048621,,,,1
049170,Szent István utca H,47.391189,19.114442,049170,,,,2
049171,Zsellér dűlő,47.391331,19.118615,049171,,,,1
049172,Gyáli-patak,47.394741,19.116818,049172,,,,1
049174,"Soroksár, Kertvárosi körút",47.413022,19.136121,049174,,,,1
049180,Dagály fürdő,47.539082,19.061698,049180,,,,1
049182,Úszódaru utca,47.546042,19.069019,049182,,,,2
049183,Úszódaru utca,47.545655,19.068673,049183,,,,1
049186,Kalotaszeg utca,47.459241,19.040896,049186,,,,1
049597,BudaPart,47.468442,19.057157,049597,,,,1
049784,Clark Ádám tér,47.498870,19.040187,049784,,,,1
049785,Clark Ádám tér,47.499328,19.040161,049785,,,,1
049903,Mansfeld Péter park,47.517064,19.033228,049903,,,,1
049914,Sörgyár,47.491859,19.144405,049914,,,,2
050003,Cinkota H,47.519950,19.220289,050003,,,,1
050129,Csapó utca,47.440861,19.161363,050129,,,,2
050173,Lincoln út,47.415985,19.243460,050173,,,,1
050174,Lőrinci utca,47.416591,19.241515,050174,,,,1
050175,"Pestszentlőrinc, sorompó",47.421948,19.238393,050175,,,,1
050176,"Pestszentlőrinc, sorompó",47.422092,19.238301,050176,,,,1
050177,"Ganztelep, Mednyánszky utca",47.423195,19.234780,050177,,,,1
050181,Ferihegy vasútállomás,47.436741,19.222565,F03810,,merged,MERGED_F03810,2
050184,Lőrinci piac,47.443206,19.184417,050184,,,,1
050185,"Vecsés, Market Central Ferihegy",47.416816,19.251653,050185,,merged,MERGED_050185,1
050186,"Vecsés, Market Central Ferihegy",47.416816,19.251653,050185,,merged,MERGED_050185,1
050187,"Vecsés, Fő út",47.418376,19.249486,050187,,,,1
050189,"Ganztelep, Mednyánszky utca",47.423843,19.234636,F03795,,merged,MERGED_F03795,1
050274,Kossuth Lajos tér M (Szemere utca),47.506380,19.051004,050274,,,,1
050279,Lomnici utca,47.436482,19.019517,050279,,,,1
056123,Borsmenta utca,47.572507,19.010551,056123,,,,1
056124,Citronella utca,47.571696,19.006817,056124,,,,1
056161,Csillaghegy H [1],47.584340,19.044241,056161,,,,2
056162,Mészkő utca [2],47.579492,19.034353,056162,,,,2
056163,Mészkő utca [2],47.579402,19.034313,056163,,,,2
056165,Öregbükk utca [3],47.581020,19.030165,056165,,,,2
056166,Öregbükk utca [3],47.580966,19.030085,056166,,,,2
056168,Cserszömörce utca [4],47.582575,19.026017,056168,,,,2
056169,Cserszömörce utca [4],47.582485,19.025937,056169,,,,2
056173,Mácsonya utca [5],47.583753,19.023757,056173,,,,2
056175,Saroglya utca [6],47.584391,19.022254,056175,,,,2
056178,Csillaghegy H [1],47.584637,19.043138,056178,,,,2
056187,Muzsla utca [11],47.580911,19.024130,056187,,,,2
056188,Óarany utca [10],47.579094,19.023387,056188,,,,2
056189,Ipacsfa utca,47.429408,19.168648,056189,,,,1
056202,Kelenföld vasútállomás,47.464403,19.020674,056202,1,,,2
056204,Szent Gellért tér - Műegyetem,47.483441,19.053806,056204,1,,,2
056206,Keleti pályaudvar,47.500301,19.081213,056206,1,,,2
056207,Bikás park,47.464773,19.033395,056207,1,,,2
056209,Újbuda-központ,47.473991,19.046348,056209,1,,,2
056210,Móricz Zsigmond körtér,47.477416,19.047473,056210,1,,,2
056211,Fővám tér,47.486713,19.057096,056211,1,,,2
056212,Kálvin tér,47.489074,19.061480,056212,1,,,2
056213,Rákóczi tér,47.492722,19.071817,056213,1,,,2
056214,II. János Pál pápa tér,47.495300,19.077244,056214,1,,,2
056215,Kelenföld vasútállomás,47.464515,19.019618,056215,,,CS056215,1
056216,Kelenföld vasútállomás,47.464255,19.020587,056216,,,CS056215,1
056217,Bikás park,47.464881,19.032345,056217,,,CS056217,1
056218,Bikás park,47.465022,19.033386,056218,,,CS056217,1
056219,Újbuda-központ,47.472860,19.045954,056219,,,CS056219,1
056220,Újbuda-központ,47.473559,19.046266,056220,,,CS056219,1
056221,Móricz Zsigmond körtér,47.476629,19.047227,056221,,,CS056221,1
056222,Móricz Zsigmond körtér,47.477310,19.047645,056222,,,CS056221,1
056223,Szent Gellért tér - Műegyetem,47.482635,19.054014,056223,,,CS056223,1
056224,Szent Gellért tér - Műegyetem,47.483039,19.055036,056224,,,CS056223,1
056225,Fővám tér,47.485792,19.057571,056225,,,CS056225,1
056226,Fővám tér,47.486169,19.058009,056226,,,CS056225,1
056227,Kálvin tér,47.488903,19.061022,056227,,,CS056227,1
056228,Kálvin tér,47.489245,19.061938,056228,,,CS056227,1
056229,Rákóczi tér,47.492725,19.071361,056229,,,CS056229,1
056230,Rákóczi tér,47.492760,19.072489,056230,,,CS056229,1
056231,II. János Pál pápa tér,47.495593,19.077229,056231,,,CS056231,1
056232,II. János Pál pápa tér,47.496078,19.077707,056232,,,CS056231,1
056233,Keleti pályaudvar,47.500116,19.080722,056233,,,CS056233,1
056234,Keleti pályaudvar,47.500485,19.081704,056234,,,CS056233,1
056379,Metró DBR járműtelep (kapu),47.461404,19.025005,056379,,,,
056426,Károly körút (Astoria M),47.495586,19.060174,056426,,,,2
056427,Deák Ferenc tér M,47.497853,19.054189,056427,,,,1
061136,Rákosszeg park,47.534267,19.103451,061136,,,,2
061188,Kelenföld vasútállomás M,47.464005,19.018706,061188,,,,1
061222,Kelenföld vasútállomás M,47.464364,19.018786,061222,,,,1
061223,Neszmélyi út,47.460812,19.013887,061223,,,,1
061224,Zelk Zoltán út / Neszmélyi út,47.458590,19.018802,061224,,,,1
061225,Hajtány sor,47.455362,19.024440,061225,,,,1
061226,Zelk Zoltán út (Menyecske utca),47.461423,19.018933,061226,,,,2
061227,Zelk Zoltán út (Menyecske utca),47.461046,19.018907,061227,,,,2
061231,Pajkos utca,47.456821,19.030513,061231,,,,1
061232,Pajkos utca,47.457108,19.029134,061232,,,,1
061233,Antalháza,47.436488,19.007202,061233,,,,1
061234,Antalháza,47.436388,19.006937,061234,,,,1
061236,Bíbic utca,47.412085,19.005088,061236,,,,1
061237,Bíbic utca,47.411959,19.005128,061237,,,,1
061238,Nyéki Imre Uszoda,47.450921,19.036880,061238,,,,1
061271,Igmándi utca,47.456585,19.019772,061271,,,,1
061272,Bolygó utca,47.451250,19.016300,061272,,,,1
061273,Bolygó utca,47.450764,19.016208,061273,,,,1
061274,Kelenföld vasútállomás M,47.464094,19.018481,061274,,,,1
061275,Kelenföld vasútállomás M,47.464337,19.018507,061275,,,,1
061277,Kelenföld vasútállomás M,47.464634,19.018494,061277,,,,1
061278,Kelenföld vasútállomás M,47.464751,19.017791,061278,,,,1
061280,Kelenföld vasútállomás M,47.464436,19.018308,061280,,,,1
061286,Szabina út,47.437398,19.013737,061286,,,,1
061349,Keleti pályaudvar M,47.499654,19.083773,061349,,,,1
061350,Keleti pályaudvar M,47.499809,19.083229,061350,,,,1
061351,Keleti pályaudvar M,47.499809,19.083839,061351,,,,1
061352,Keleti pályaudvar M,47.499809,19.084145,061352,,,,1
061367,Puskás Ferenc Stadion M,47.499880,19.107530,061367,,,,1
061368,Munkás utca,47.499918,19.079088,061368,,,,1
061378,Szőlőskert utca,47.502266,18.916790,061378,,,,2
061379,"Maglód, Auchan áruház",47.459226,19.332051,061379,,,,1
062375,Közvágóhíd H,47.467310,19.077928,062375,,,,1
062511,Than Károly utca,47.460867,19.025127,062511,,,,1
062512,Borszéki utca,47.458420,19.023497,062512,,,,1
062513,Jégmadár utca,47.430794,19.005802,062513,,,,1
062514,Jégmadár utca,47.430722,19.005656,062514,,,,1
062515,Török utca,47.412771,18.989465,062515,,,,1
062516,Török utca,47.412851,18.988856,062516,,,,2
062517,Rózsák tere,47.501817,19.075598,062517,,,,1
062518,Március 15. tér,47.491881,19.051747,062518,,,,1
062519,Gazdagréti út,47.462741,19.005126,062519,,,,1
062521,Corvin-negyed M,47.486357,19.068850,062521,,,,1
062522,XIII. utca / Dózsa György út,47.411172,18.993786,062522,,,,1
062604,Nyár utca,47.435693,18.918493,062604,,,,1
062607,Infopark (Pázmány Péter sétány),47.469854,19.062994,062607,,,,1
062608,Magyar tudósok körútja,47.471473,19.063671,062608,,,,1
062620,Egyetemváros - A38 hajóállomás,47.474504,19.063061,062620,,,,1
062621,Egyetemváros - A38 hajóállomás,47.473730,19.063592,062621,,,,1
062622,Magyar tudósok körútja,47.472183,19.063857,062622,,,,1
062726,Régi vám,47.445619,19.005506,062726,,,,1
062815,Szent László utca,47.405382,18.999105,062815,,,,2
062861,Dagály fürdő,47.537850,19.062428,062861,,,,1
062942,Péterfy Sándor utca,47.501636,19.077828,062942,,,,1
062944,Czetz János köz,47.578206,19.049333,062944,,,,1
062946,Attila utca,47.581300,19.049413,062946,,,,1
062948,Mátyás király út,47.586373,19.050024,062948,,,,1
062950,Bercsényi utca,47.585689,19.051181,062950,,,,1
063399,Hulladékhasznosító Mű,47.584113,19.131087,063399,,,,2
063526,Lehel tér M (kelet),47.516534,19.060882,063526,,,,
064067,Massányi úti lakópark,47.359933,19.028746,064067,,,,1
064074,Massányi úti lakópark,47.360751,19.027739,064074,,,,1
064075,"Szigetszentmiklós, Szabadság utca",47.358296,19.031884,064075,,merged,MERGED_064075,1
064085,Kölcsey Ferenc utca,47.355275,19.034823,064085,,,,1
064087,Lehel utca,47.352883,19.038490,064087,,,,2
064088,Városi Könyvtár,47.344797,19.042250,064088,,,,1
064089,Miklós Pláza,47.341631,19.040874,064089,,,,2
064090,Nap utca (óvoda),47.349535,19.025706,064090,,,,1
064091,Váci Mihály utca (József Attila-telep H),47.338455,19.035846,064091,,,,1
064092,Jókai utca,47.341252,19.035951,064092,,,,1
064093,Akácfa körút,47.344229,19.033185,064093,,,,1
064103,Tamási Áron utca,47.345047,19.028076,064103,,,,1
064104,Miklós tér,47.346953,19.023219,064104,,,,2
