"stop_id","stop_code","stop_name","stop_lat","stop_lon","stop_url","wheelchair_boarding"
"507396","507396","Sint-Andries Kerk","51.196936","3.179598","https://www.delijn.be/nl/haltes/507396","1"
"511004","511004","Mesen Markt","50.765134","2.897064","https://www.delijn.be/nl/haltes/511004","0"
"109040","109040","Antwerpen R. Veremanstraat","51.268969","4.418216","https://www.delijn.be/nl/haltes/109040","0"
"107426","107426","Mechelen EDS","51.053699","4.448040","https://www.delijn.be/nl/haltes/107426","0"
"435421","435421","Tessenderlo Tennisclub","51.079655","5.088456","https://www.delijn.be/nl/haltes/435421","0"
"305693","305693","Halle-Booienhoven Dorpstraat","50.813242","5.110387","https://www.delijn.be/nl/haltes/305693","0"
"109712","109712","Herentals Kerkhof","51.191779","4.844151","https://www.delijn.be/nl/haltes/109712","0"
"377852","377852","Oudergem Delta","50.818240","4.404687","https://www.delijn.be/nl/haltes/377852","0"
"302627","302627","Kortenaken Diestsestraat 31","50.911686","5.061561","https://www.delijn.be/nl/haltes/302627","0"
"502198","502198","Hooglede Rodenbachwijk","50.973189","3.085972","https://www.delijn.be/nl/haltes/502198","1"
"506360","506360","Oostende Zwaluwenstraat","51.217337","2.907302","https://www.delijn.be/nl/haltes/506360","0"
"212664","212664","Evergem Meerhem","51.146764","3.731869","https://www.delijn.be/nl/haltes/212664","0"
"310762","310762","Zemst Spilt","50.978835","4.419649","https://www.delijn.be/nl/haltes/310762","0"
"206877","206877","Aalst Rozendreef","50.951750","4.067735","https://www.delijn.be/nl/haltes/206877","1"
"300605","300605","Lovenjoel Gemeentehuis","50.855641","4.781211","https://www.delijn.be/nl/haltes/300605","0"
"509011","509011","Alveringem Doornboom","51.014077","2.720699","https://www.delijn.be/nl/haltes/509011","0"
"201910","201910","Kalken Pennemansbaan","51.046309","3.922947","https://www.delijn.be/nl/haltes/201910","0"
"502299","502299","Moerkerke Wonderjaar","51.234907","3.325233","https://www.delijn.be/nl/haltes/502299","0"
"201590","201590","Sint-Denijs-Westrem Stijn Streuvelslaan","51.030085","3.681000","https://www.delijn.be/nl/haltes/201590","0"
"303277","303277","Melkwezer Kerk","50.822595","5.058736","https://www.delijn.be/nl/haltes/303277","0"
"435038","435038","Bocholt Toekomststraat","51.147335","5.560925","https://www.delijn.be/nl/haltes/435038","0"
"200479","200479","Gentbrugge Stelplaats","51.036594","3.751253","https://www.delijn.be/nl/haltes/200479","0"
"105500","105500","Edegem Noulaertsplein","51.158125","4.430597","https://www.delijn.be/nl/haltes/105500","0"
"104310","104310","Mortsel Station","51.182176","4.447857","https://www.delijn.be/nl/haltes/104310","0"
"308290","308290","Schaffen Merelstraat","51.006726","5.057146","https://www.delijn.be/nl/haltes/308290","0"
"508766","508766","Rumbeke Zilverberg","50.921058","3.117325","https://www.delijn.be/nl/haltes/508766","1"
"107301","107301","Lier Australiëlaan","51.139203","4.556399","https://www.delijn.be/nl/haltes/107301","0"
"405659","405659","Tongeren Clarastraat","50.772646","5.465171","https://www.delijn.be/nl/haltes/405659","0"
"208119","208119","Oudenaarde Markt","50.842419","3.603666","https://www.delijn.be/nl/haltes/208119","1"
"302683","302683","Waanrode Kerk","50.916313","5.003599","https://www.delijn.be/nl/haltes/302683","0"
"307135","307135","Londerzeel Egmont & Hoorn","51.011346","4.299479","https://www.delijn.be/nl/haltes/307135","0"
"509614","509614","Woesten Stadion","50.904998","2.782748","https://www.delijn.be/nl/haltes/509614","0"
"301032","301032","Sint-Gillis Moris","50.824405","4.349950","https://www.delijn.be/nl/haltes/301032","0"
"502054","502054","Assebroek Vossenslag","51.202198","3.255787","https://www.delijn.be/nl/haltes/502054","0"
"509097","509097","Geluwe Plaats","50.810105","3.077158","https://www.delijn.be/nl/haltes/509097","0"
"106285","106285","Rijkevorsel Reeweg","51.348468","4.806488","https://www.delijn.be/nl/haltes/106285","0"
"407850","407850","Brustem Vliegveldlaan","50.798370","5.211894","https://www.delijn.be/nl/haltes/407850","0"
"410676","410676","Ittervoort Kerk","51.170011","5.824444","https://www.delijn.be/nl/haltes/410676","0"
"452043","452043","Waterschei Dijkstraat","50.993002","5.518689","https://www.delijn.be/nl/haltes/452043","0"
"207789","207789","Ronse T.I.Depoorter","50.749400","3.599470","https://www.delijn.be/nl/haltes/207789","0"
"304152","304152","Pepingen Elbeek","50.745462","4.197968","https://www.delijn.be/nl/haltes/304152","0"
"513018","513018","Anzegem Steenbruggestraat","50.852190","3.462528","https://www.delijn.be/nl/haltes/513018","0"
"107370","107370","Ekeren Driehoekstraat","51.284586","4.423507","https://www.delijn.be/nl/haltes/107370","0"
"306346","306346","Vilvoorde Joroca","50.946154","4.435608","https://www.delijn.be/nl/haltes/306346","0"
"353467","353467","Huldenberg Gemeenteplein","50.790400","4.580006","https://www.delijn.be/nl/haltes/353467","0"
"406112","406112","Maaseik Venweg","51.114074","5.772101","https://www.delijn.be/nl/haltes/406112","0"
"203873","203873","Sint-Lievens-Houtem Polbroek","50.915848","3.852234","https://www.delijn.be/nl/haltes/203873","1"
"206021","206021","Aalst Bredestraat","50.956869","4.048702","https://www.delijn.be/nl/haltes/206021","0"
"209467","209467","Sint-Lievens-Esse Terbiest","50.858388","3.882366","https://www.delijn.be/nl/haltes/209467","0"
"218184","218184","Grotenberge Industrielaan","50.874068","3.837153","https://www.delijn.be/nl/haltes/218184","0"
"106761","106761","Boom Schorre","51.085495","4.377610","https://www.delijn.be/nl/haltes/106761","0"
"235073","235073","Eke Bosstraat","50.963208","3.633859","https://www.delijn.be/nl/haltes/235073","0"
"105277","105277","Schoten Grote Singel","51.258064","4.537071","https://www.delijn.be/nl/haltes/105277","0"
"103116","103116","Hallaar Kerk Markthalte","51.084042","4.728515","https://www.delijn.be/nl/haltes/103116","0"
"106436","106436","Massenhoven Gebroken Loop","51.204007","4.647749","https://www.delijn.be/nl/haltes/106436","1"
"302795","302795","Kraainem Bricout","50.863892","4.461568","https://www.delijn.be/nl/haltes/302795","0"
"101454","101454","Duffel Poederstraat","51.098270","4.525020","https://www.delijn.be/nl/haltes/101454","0"
"515436","515436","Lo Turkeyen","50.982858","2.756492","https://www.delijn.be/nl/haltes/515436","0"
"300120","300120","Rillaar Boekhoutse Molen","50.956302","4.896933","https://www.delijn.be/nl/haltes/300120","0"
"304504","304504","Sint-Kwintens-Lennik Negenbunderstraat","50.806505","4.146688","https://www.delijn.be/nl/haltes/304504","0"
"401919","401919","Beverst Vogelzangstraat","50.890587","5.479309","https://www.delijn.be/nl/haltes/401919","0"
"310305","310305","Sint-Katherina-Lombeek Roesemslos","50.867788","4.138630","https://www.delijn.be/nl/haltes/310305","0"
"219082","219082","Ronse Edmond Van Beverenplein","50.755871","3.610392","https://www.delijn.be/nl/haltes/219082","0"
"408831","408831","Mo Weg op Berneau","50.757477","5.725496","https://www.delijn.be/nl/haltes/408831","0"
"401801","401801","Lanklaar Heideweelde","51.010138","5.647153","https://www.delijn.be/nl/haltes/401801","1"
"306111","306111","Haasrode Brabanthal","50.852502","4.727266","https://www.delijn.be/nl/haltes/306111","0"
"308788","308788","Sint-Katherina-Lombeek Wei","50.886321","4.155718","https://www.delijn.be/nl/haltes/308788","0"
"400459","400459","Eben Moulin","50.779201","5.661039","https://www.delijn.be/nl/haltes/400459","0"
"105787","105787","Wuustwezel Martendijk","51.364099","4.559719","https://www.delijn.be/nl/haltes/105787","0"
"510363","510363","Gullegem Drie Masten","50.858725","3.184716","https://www.delijn.be/nl/haltes/510363","0"
"200151","200151","Gent Malpertuusplein","51.065459","3.689809","https://www.delijn.be/nl/haltes/200151","1"
"512100","512100","Kristus-Koning Scheepsdalebrug","51.217961","3.211565","https://www.delijn.be/nl/haltes/512100","1"
"206933","206933","Wetteren Peperstraatje","51.008683","3.873565","https://www.delijn.be/nl/haltes/206933","0"
"105431","105431","Brasschaat Rustoordlei","51.300361","4.473241","https://www.delijn.be/nl/haltes/105431","0"
"209478","209478","Ophasselt Bildeken","50.821191","3.890783","https://www.delijn.be/nl/haltes/209478","0"
"307005","307005","Rotselaar Dorp","50.949824","4.710737","https://www.delijn.be/nl/haltes/307005","0"
"517007","517007","Aartrijke Moubeke","51.099420","3.104512","https://www.delijn.be/nl/haltes/517007","0"
"109690","109690","Geel Diestseweg","51.156544","4.993974","https://www.delijn.be/nl/haltes/109690","0"
"305799","305799","Leest Van Praet","51.029453","4.384110","https://www.delijn.be/nl/haltes/305799","0"
"506176","506176","Koksijde Lejeunelaan","51.121363","2.640818","https://www.delijn.be/nl/haltes/506176","1"
"404196","404196","Heusden Schootstraat","51.031138","5.285858","https://www.delijn.be/nl/haltes/404196","0"
"405914","405914","Genenbos Schipperstraat","51.011019","5.231279","https://www.delijn.be/nl/haltes/405914","1"
"203922","203922","Bottelare Dorp","50.963252","3.753550","https://www.delijn.be/nl/haltes/203922","0"
"305870","305870","Strijtem Sint-Franciscus","50.844804","4.119299","https://www.delijn.be/nl/haltes/305870","0"
"511119","511119","Houtave Kapellestraat","51.240297","3.106564","https://www.delijn.be/nl/haltes/511119","0"
"405310","405310","Landen Pepijnstraat","50.750777","5.076553","https://www.delijn.be/nl/haltes/405310","0"
"509343","509343","Noordschote Drie Grachten","50.959282","2.822779","https://www.delijn.be/nl/haltes/509343","0"
"109062","109062","Herselt Vispoel","51.043918","4.957308","https://www.delijn.be/nl/haltes/109062","0"
"304668","304668","Vlezenbeek Dorp","50.804293","4.235269","https://www.delijn.be/nl/haltes/304668","0"
"200780","200780","Gent Korenmarkt perron 3","51.053820","3.722422","https://www.delijn.be/nl/haltes/200780","1"
"303430","303430","Binkom Stwg naar Attenrode","50.866141","4.889315","https://www.delijn.be/nl/haltes/303430","0"
"400815","400815","Munsterbilzen Centrum","50.889399","5.526315","https://www.delijn.be/nl/haltes/400815","0"
"106175","106175","Zoersel Dorp","51.269960","4.713529","https://www.delijn.be/nl/haltes/106175","0"
"214036","214036","Lokeren Lokerhoutstraat","51.095766","3.997464","https://www.delijn.be/nl/haltes/214036","0"
"306935","306935","Boutersem Dorp","50.839800","4.833482","https://www.delijn.be/nl/haltes/306935","0"
"216535","216535","Borsbeke Ketegemstraat","50.907205","3.901396","https://www.delijn.be/nl/haltes/216535","1"
"516374","516374","Raversijde Transvaalstraat","51.205257","2.861950","https://www.delijn.be/nl/haltes/516374","0"
"400854","400854","Rosmeer Rode Kruislaan","50.850258","5.564934","https://www.delijn.be/nl/haltes/400854","0"
"535017","535017","Aarsele Bareelke","50.990562","3.436864","https://www.delijn.be/nl/haltes/535017","0"
"511081","511081","Dudzele Landslag","51.268779","3.223679","https://www.delijn.be/nl/haltes/511081","0"
"202859","202859","Moortsele Dorp","50.958516","3.779728","https://www.delijn.be/nl/haltes/202859","0"
"305122","305122","Oplinter Zavelstraat","50.841679","4.994733","https://www.delijn.be/nl/haltes/305122","0"
"307132","307132","Overijse Abstraat","50.756538","4.570183","https://www.delijn.be/nl/haltes/307132","0"
"508158","508158","Gullegem Ballingbos","50.853596","3.190924","https://www.delijn.be/nl/haltes/508158","0"
"307443","307443","Aarschot Heilaakstraat","50.993435","4.838055","https://www.delijn.be/nl/haltes/307443","0"
"401303","401303","Opitter Rorenweg 8","51.133198","5.629567","https://www.delijn.be/nl/haltes/401303","0"
"409017","409017","Hamont Molenstraat","51.246910","5.536895","https://www.delijn.be/nl/haltes/409017","0"
"219145","219145","Erwetegem CKG Zonneheuvel","50.853737","3.818228","https://www.delijn.be/nl/haltes/219145","0"
"405731","405731","Rocourt Hypermarché","50.670108","5.550184","https://www.delijn.be/nl/haltes/405731","1"
"105156","105156","Mechelen Landweg","51.034915","4.454945","https://www.delijn.be/nl/haltes/105156","0"
"200941","200941","Boekhoute Meuleken","51.257118","3.706803","https://www.delijn.be/nl/haltes/200941","0"
"402499","402499","Genk Kerkhof","50.957020","5.507299","https://www.delijn.be/nl/haltes/402499","0"
"101223","101223","Sint-Amands Scheldelaan","51.047082","4.203430","https://www.delijn.be/nl/haltes/101223","0"
"206350","206350","Lebbeke Kerk","51.000736","4.129143","https://www.delijn.be/nl/haltes/206350","0"
"302984","302984","Teralfene Kapelleweg","50.891445","4.103417","https://www.delijn.be/nl/haltes/302984","0"
"217409","217409","Schellebelle Dorp","51.012948","3.928443","https://www.delijn.be/nl/haltes/217409","0"
"400084","400084","Alken Steenweg","50.889686","5.288871","https://www.delijn.be/nl/haltes/400084","0"
"403549","403549","Alken Kapelleke","50.895157","5.302746","https://www.delijn.be/nl/haltes/403549","0"
"510417","510417","Eernegem Het Veld","51.123144","3.057788","https://www.delijn.be/nl/haltes/510417","0"
"106046","106046","Wijnegem Dorp","51.227582","4.523444","https://www.delijn.be/nl/haltes/106046","1"
"406647","406647","Meeuwen Wilgenstraat","51.092483","5.494614","https://www.delijn.be/nl/haltes/406647","0"
"521555","521555","Oostduinkerke Sportpark","51.116435","2.685191","https://www.delijn.be/nl/haltes/521555","0"
"303509","303509","Lubbeek Weg naar Uilekot","50.880441","4.834482","https://www.delijn.be/nl/haltes/303509","0"
"501588","501588","Oostende Oesterbank","51.220435","2.950925","https://www.delijn.be/nl/haltes/501588","0"
"300881","300881","Brussel Stuyvenberg","50.886420","4.341467","https://www.delijn.be/nl/haltes/300881","0"
"235020","235020","Balegem-Zuid Station","50.899718","3.806132","https://www.delijn.be/nl/haltes/235020","0"
"512531","512531","Waardamme Akkerstraat","51.107365","3.221940","https://www.delijn.be/nl/haltes/512531","0"
"203492","203492","Destelbergen Groenstraat","51.071034","3.831328","https://www.delijn.be/nl/haltes/203492","0"
"302389","302389","Sint-Agatha-Rode Dorp","50.785668","4.633325","https://www.delijn.be/nl/haltes/302389","0"
"101688","101688","Goirle Dorpsstraat","51.523026","5.064825","https://www.delijn.be/nl/haltes/101688","0"
"170120","170120","Meerle Dorp","51.474344","4.798769","https://www.delijn.be/nl/haltes/170120","0"
"202791","202791","Lotenhulle Bollestraat","51.044179","3.495441","https://www.delijn.be/nl/haltes/202791","0"
"208428","208428","Nederzwalm Scheldestraat","50.891744","3.687904","https://www.delijn.be/nl/haltes/208428","0"
"105365","105365","Hoboken Steynstraat","51.178065","4.352848","https://www.delijn.be/nl/haltes/105365","1"
"563343","563343","Kortemark Station","51.026807","3.044069","https://www.delijn.be/nl/haltes/563343","0"
"109633","109633","Merksplas Veldenbergstraat","51.372952","4.838484","https://www.delijn.be/nl/haltes/109633","0"
"203471","203471","Laarne Dorp","51.029495","3.850058","https://www.delijn.be/nl/haltes/203471","0"
"202988","202988","Waarschoot Hoekje Kerk","51.162667","3.617970","https://www.delijn.be/nl/haltes/202988","0"
"408734","408734","Tongeren Weg naar Hasselt","50.794729","5.464896","https://www.delijn.be/nl/haltes/408734","1"
"302579","302579","Hoeleden Schoenmaker","50.858307","4.999870","https://www.delijn.be/nl/haltes/302579","0"
"435319","435319","Opglabbeek Wolfsstraat","51.052795","5.575770","https://www.delijn.be/nl/haltes/435319","0"
"304103","304103","Overijse Vier Koningen","50.760930","4.559875","https://www.delijn.be/nl/haltes/304103","0"
"306162","306162","Bertem Blokkenstraat","50.860496","4.621675","https://www.delijn.be/nl/haltes/306162","0"
"435114","435114","Hasselt Uilstraat","50.906484","5.334442","https://www.delijn.be/nl/haltes/435114","0"
"204918","204918","Gent Sint-Pietersstation perron 8","51.036599","3.708886","https://www.delijn.be/nl/haltes/204918","1"
"408167","408167","Sint-Truiden Sint-Martenplein","50.815400","5.182357","https://www.delijn.be/nl/haltes/408167","0"
"535176","535176","Poperinge De Gapaard","50.869105","2.685154","https://www.delijn.be/nl/haltes/535176","0"
"106893","106893","Kontich Duivenstraat","51.136050","4.448670","https://www.delijn.be/nl/haltes/106893","1"
"200679","200679","Machelen Dorp","50.959041","3.487370","https://www.delijn.be/nl/haltes/200679","0"
"235372","235372","Zaffelare Slagmanstraat","51.110345","3.868266","https://www.delijn.be/nl/haltes/235372","0"
"303252","303252","Drieslinter Grote Steenweg 420","50.851353","5.058695","https://www.delijn.be/nl/haltes/303252","0"
"208632","208632","Sint-Martens-Lierde Stratendries","50.800373","3.801366","https://www.delijn.be/nl/haltes/208632","0"
"301417","301417","Lettelingen Achterkant Station","50.697905","4.047053","https://www.delijn.be/nl/haltes/301417","0"
"300418","300418","Assent Centrum","50.952708","5.016836","https://www.delijn.be/nl/haltes/300418","0"
"304764","304764","Perk Molenstraat","50.943204","4.493884","https://www.delijn.be/nl/haltes/304764","1"
"458504","458504","Berg Viseweg","50.788110","5.499805","https://www.delijn.be/nl/haltes/458504","0"
"205619","205619","Beveren-Waas J. Van Hoofstraat","51.213346","4.234432","https://www.delijn.be/nl/haltes/205619","0"
"200064","200064","Gent Vijfwindgatenstraat","51.044527","3.733705","https://www.delijn.be/nl/haltes/200064","0"
"206613","206613","Denderwindeke Oude Brusselstraat","50.790901","3.995238","https://www.delijn.be/nl/haltes/206613","0"
"510340","510340","Menen Buurtweg","50.811088","3.119510","https://www.delijn.be/nl/haltes/510340","0"
"211082","211082","Zwijnaarde Bibliotheek","51.001781","3.712999","https://www.delijn.be/nl/haltes/211082","1"
"310517","310517","Merchtem Drypikkel","50.959089","4.242975","https://www.delijn.be/nl/haltes/310517","1"
"103677","103677","Vosselaar Astridlaan","51.308499","4.878557","https://www.delijn.be/nl/haltes/103677","0"
"535943","535943","Stavele Westsluishoek","50.927366","2.654939","https://www.delijn.be/nl/haltes/535943","0"
"107121","107121","Turnhout Markt perron 6","51.322658","4.949707","https://www.delijn.be/nl/haltes/107121","0"
"301458","301458","Geetbets De Plakker","50.874856","5.089897","https://www.delijn.be/nl/haltes/301458","0"
"406277","406277","Uikhoven Pastoor Goossenslaan","50.923738","5.718623","https://www.delijn.be/nl/haltes/406277","0"
"510338","510338","Menen Moorselestraat","50.804384","3.123453","https://www.delijn.be/nl/haltes/510338","0"
"104343","104343","Horendonk Over d'Aa","51.466340","4.486547","https://www.delijn.be/nl/haltes/104343","0"
"235401","235401","Zulte Kraaidreef","50.910155","3.438436","https://www.delijn.be/nl/haltes/235401","0"
"308822","308822","Waasmont Bosstraat","50.723286","5.064587","https://www.delijn.be/nl/haltes/308822","0"
"404953","404953","Vliermaalroot Weierstraat","50.855356","5.427659","https://www.delijn.be/nl/haltes/404953","0"
"407750","407750","Zichen Groenstraat","50.791808","5.631383","https://www.delijn.be/nl/haltes/407750","0"
"211405","211405","Gent Pantserschipstraat","51.090186","3.727951","https://www.delijn.be/nl/haltes/211405","1"
"304232","304232","Borchtlombeek Kerk","50.848536","4.137593","https://www.delijn.be/nl/haltes/304232","0"
"509248","509248","Krombeke Keizelaarstraat","50.915732","2.681493","https://www.delijn.be/nl/haltes/509248","0"
"405958","405958","Meldert Zwarte Ring","51.013073","5.125060","https://www.delijn.be/nl/haltes/405958","1"
"501633","501633","Nieuwpoort Bad","51.149272","2.720024","https://www.delijn.be/nl/haltes/501633","0"
"511086","511086","Eernegem Bourgognevaart","51.150829","3.023849","https://www.delijn.be/nl/haltes/511086","0"
"207445","207445","Woubrechtegem Dorp","50.872825","3.915798","https://www.delijn.be/nl/haltes/207445","0"
"201659","201659","Zwijnaarde Technologiepark (Tramstraat)","51.008401","3.707802","https://www.delijn.be/nl/haltes/201659","1"
"205633","205633","Kruibeke Scheldelei","51.176079","4.315807","https://www.delijn.be/nl/haltes/205633","0"
"213036","213036","Baaigem Grintweg","50.930430","3.724696","https://www.delijn.be/nl/haltes/213036","0"
"404221","404221","Zolder Kruispunt","51.027215","5.329291","https://www.delijn.be/nl/haltes/404221","1"
"401130","401130","Borgloon Rusthuis","50.803417","5.339106","https://www.delijn.be/nl/haltes/401130","1"
"107016","107016","Nijlen Station","51.159563","4.666732","https://www.delijn.be/nl/haltes/107016","0"
"508199","508199","Harelbeke Marktstraat","50.855332","3.308902","https://www.delijn.be/nl/haltes/508199","0"
"513516","513516","Lendelede Bauwelare","50.897204","3.230762","https://www.delijn.be/nl/haltes/513516","0"
"105661","105661","Hoogstraten Katelijnestraat","51.396383","4.746802","https://www.delijn.be/nl/haltes/105661","0"
"235151","235151","Laarne Preekheerstraat","51.022884","3.852949","https://www.delijn.be/nl/haltes/235151","0"
"405248","405248","Smeermaas Veugenlaan","50.887984","5.673722","https://www.delijn.be/nl/haltes/405248","1"
"204362","204362","Sint-Niklaas WeTech Academy","51.166115","4.165797","https://www.delijn.be/nl/haltes/204362","0"
"305321","305321","Vilvoorde Steevoortstraat","50.925983","4.446683","https://www.delijn.be/nl/haltes/305321","0"
"305305","305305","Vilvoorde Oude Vaartbrug","50.926072","4.416033","https://www.delijn.be/nl/haltes/305305","1"
"135115","135115","Meer Terbeeksestraat","51.437051","4.720353","https://www.delijn.be/nl/haltes/135115","0"
"201598","201598","Gent Polikliniek Sint-Denijslaan","51.036456","3.698600","https://www.delijn.be/nl/haltes/201598","1"
"103261","103261","Kalmthout Gitok 1ste Graad","51.362112","4.467672","https://www.delijn.be/nl/haltes/103261","0"
"104277","104277","Wildert Eikenblok","51.426493","4.462181","https://www.delijn.be/nl/haltes/104277","0"
"308744","308744","Rummen Weg naar Dorp","50.890081","5.179638","https://www.delijn.be/nl/haltes/308744","0"
"210464","210464","Olsene Sint-Pieterstraat","50.930405","3.456969","https://www.delijn.be/nl/haltes/210464","0"
"405305","405305","Attenhoven Hey","50.770282","5.096347","https://www.delijn.be/nl/haltes/405305","0"
"510570","510570","Beernem Bulskampveld (Wellingstraat)","51.124307","3.288130","https://www.delijn.be/nl/haltes/510570","0"
"302776","302776","Kortenberg Station Noord","50.893237","4.543315","https://www.delijn.be/nl/haltes/302776","0"
"203860","203860","Moortsele Station","50.954102","3.780817","https://www.delijn.be/nl/haltes/203860","0"
"506320","506320","Oostende Mansveldstraat","51.233121","2.943920","https://www.delijn.be/nl/haltes/506320","0"
"400688","400688","Hoeselt Morlotlaan","50.843009","5.482852","https://www.delijn.be/nl/haltes/400688","0"
"407286","407286","Overpelt Neus","51.204085","5.406176","https://www.delijn.be/nl/haltes/407286","0"
"201096","201096","Gent Sint-Lievenspoort (Zuidpark)","51.040080","3.736166","https://www.delijn.be/nl/haltes/201096","1"
"204128","204128","Hamme Hooirt","51.086607","4.137830","https://www.delijn.be/nl/haltes/204128","1"
"510616","510616","Sint-Pieters Kerk","51.230696","3.205385","https://www.delijn.be/nl/haltes/510616","1"
"505069","505069","Doomkerke Haantje","51.064542","3.358154","https://www.delijn.be/nl/haltes/505069","0"
"510279","510279","Anzegem Drie Kaven","50.846686","3.456618","https://www.delijn.be/nl/haltes/510279","0"
"501400","501400","Oostende Hoge Bareel","51.208846","2.904911","https://www.delijn.be/nl/haltes/501400","0"
"506823","506823","Westende Bad","51.169439","2.775896","https://www.delijn.be/nl/haltes/506823","0"
"108872","108872","Sint-Katelijne-Waver Mechelsesteenweg","51.049549","4.512987","https://www.delijn.be/nl/haltes/108872","0"
"301259","301259","Kaggevinne Kerk","50.979485","5.019741","https://www.delijn.be/nl/haltes/301259","0"
"204122","204122","Hamme Roodkruisstraat","51.100587","4.143072","https://www.delijn.be/nl/haltes/204122","0"
"503128","503128","Diksmuide Station perron 7","51.033370","2.869268","https://www.delijn.be/nl/haltes/503128","1"
"219055","219055","Etikhove Gansbeekstraat","50.816351","3.631654","https://www.delijn.be/nl/haltes/219055","1"
"108821","108821","Koningshooikt Leliënlei","51.101251","4.605456","https://www.delijn.be/nl/haltes/108821","0"
"107740","107740","Retie Obroek","51.286465","5.092322","https://www.delijn.be/nl/haltes/107740","0"
"107228","107228","Kontich Irislaan","51.118212","4.447243","https://www.delijn.be/nl/haltes/107228","0"
"200495","200495","Melle Hof Ten Dries","51.003100","3.790162","https://www.delijn.be/nl/haltes/200495","0"
"502102","502102","Brugge Ezelpoort","51.215528","3.216907","https://www.delijn.be/nl/haltes/502102","0"
"306380","306380","Herent Wijk Den Bremt","50.905501","4.663768","https://www.delijn.be/nl/haltes/306380","0"
"201558","201558","Wontergem Station","50.981349","3.447197","https://www.delijn.be/nl/haltes/201558","0"
"404906","404906","Vliermaal Vlierhof","50.839195","5.429410","https://www.delijn.be/nl/haltes/404906","0"
"401311","401311","Opitter Luytenstraat","51.118458","5.637654","https://www.delijn.be/nl/haltes/401311","0"
"402205","402205","Genk Hommelheidestraat","50.951548","5.503466","https://www.delijn.be/nl/haltes/402205","0"
"516054","516054","Damme Romboutswervedijk","51.256801","3.276307","https://www.delijn.be/nl/haltes/516054","0"
"109091","109091","Geel Meeuwstraat","51.148828","4.964113","https://www.delijn.be/nl/haltes/109091","0"
"402703","402703","Donk Getebrug","50.948522","5.120448","https://www.delijn.be/nl/haltes/402703","0"
"213494","213494","Melle Klaverstraat","51.005031","3.787526","https://www.delijn.be/nl/haltes/213494","0"
"200172","200172","Gent Geitstraat","51.056594","3.698289","https://www.delijn.be/nl/haltes/200172","0"
"405368","405368","Laar Kleinveldstraat","50.768038","5.030322","https://www.delijn.be/nl/haltes/405368","0"
"107813","107813","Puurs Station","51.076976","4.283304","https://www.delijn.be/nl/haltes/107813","0"
"213137","213137","Eeklo Galgenstraat","51.191559","3.543024","https://www.delijn.be/nl/haltes/213137","0"
"300194","300194","Asse Heilsborrestraat","50.912018","4.157507","https://www.delijn.be/nl/haltes/300194","0"
"518693","518693","Roeselare Geitepark","50.945884","3.117928","https://www.delijn.be/nl/haltes/518693","0"
"403479","403479","Schimpen Negenbunders","50.936676","5.280957","https://www.delijn.be/nl/haltes/403479","1"
"103110","103110","Berchem K. Coggestraat","51.193278","4.437099","https://www.delijn.be/nl/haltes/103110","0"
"103800","103800","Berchem Minervastraat","51.197587","4.442065","https://www.delijn.be/nl/haltes/103800","0"
"208106","208106","Sint-Kornelis-Horebeke Ruitersstraat","50.820164","3.699677","https://www.delijn.be/nl/haltes/208106","0"
"414055","414055","Genk Havenstraat","50.945361","5.495898","https://www.delijn.be/nl/haltes/414055","0"
"102936","102936","Deurne Frans Van Dijck","51.224088","4.479194","https://www.delijn.be/nl/haltes/102936","1"
"105595","105595","Wilrijk Universiteitsplein","51.163794","4.400208","https://www.delijn.be/nl/haltes/105595","0"
"235394","235394","Zomergem Azaleastraat","51.126178","3.560177","https://www.delijn.be/nl/haltes/235394","0"
"435510","435510","Zutendaal Parking Lieteberg","50.925716","5.574818","https://www.delijn.be/nl/haltes/435510","0"
"403767","403767","Klein-Gelmen Bosveldstraat","50.762576","5.272741","https://www.delijn.be/nl/haltes/403767","0"
"504752","504752","Wevelgem Ezelstraat","50.822993","3.175201","https://www.delijn.be/nl/haltes/504752","0"
"107174","107174","Arendonk Wezenstraat","51.321542","5.091926","https://www.delijn.be/nl/haltes/107174","0"
"206240","206240","Uitbergen Moleneindestraat","51.022156","3.954194","https://www.delijn.be/nl/haltes/206240","0"
"103644","103644","Arendonk Madritten","51.326296","5.086515","https://www.delijn.be/nl/haltes/103644","0"
"307369","307369","Averbode Langestraat","51.040828","4.960165","https://www.delijn.be/nl/haltes/307369","0"
"400134","400134","Alken Thielestraat","50.879965","5.329140","https://www.delijn.be/nl/haltes/400134","1"
"205637","205637","Kruibeke Annekensstraat","51.158360","4.303216","https://www.delijn.be/nl/haltes/205637","0"
"510431","510431","Middelkerke Steenovenstraat","51.178221","2.827551","https://www.delijn.be/nl/haltes/510431","0"
"403176","403176","Hasselt Kuringersteenweg","50.934445","5.322630","https://www.delijn.be/nl/haltes/403176","1"
"105263","105263","Kapellen Lepelstraat","51.351780","4.397447","https://www.delijn.be/nl/haltes/105263","0"
"404819","404819","Kinrooi Slichtenhof","51.134865","5.736529","https://www.delijn.be/nl/haltes/404819","0"
"558270","558270","Lauwe Schonekeerstraat","50.795285","3.197245","https://www.delijn.be/nl/haltes/558270","0"
"101605","101605","Antwerpen Van Schoonbekeplein","51.226758","4.405376","https://www.delijn.be/nl/haltes/101605","0"
"201573","201573","Sint-Martens-Latem De Kroon","51.009078","3.633720","https://www.delijn.be/nl/haltes/201573","0"
"207716","207716","Opstal Broekstraat","50.996007","4.176494","https://www.delijn.be/nl/haltes/207716","1"
"304570","304570","Sint-Pieters-Leeuw Bezemstraat","50.805109","4.281907","https://www.delijn.be/nl/haltes/304570","1"
"108318","108318","Westerlo Zeptstraat","51.084259","4.901364","https://www.delijn.be/nl/haltes/108318","0"
"209138","209138","Elst Heringstraat","50.831405","3.740447","https://www.delijn.be/nl/haltes/209138","0"
"410002","410002","Beringen Bogaersveld perron 4","51.051098","5.223497","https://www.delijn.be/nl/haltes/410002","0"
"510448","510448","Roeselare De Zilten","50.952687","3.095926","https://www.delijn.be/nl/haltes/510448","0"
"204222","204222","Belsele Hulstendreef","51.146582","4.095585","https://www.delijn.be/nl/haltes/204222","0"
"135064","135064","Essen zaal Heikant","51.454158","4.445207","https://www.delijn.be/nl/haltes/135064","0"
"403225","403225","Tuilt Schouterveldstraat","50.952013","5.267937","https://www.delijn.be/nl/haltes/403225","0"
"109068","109068","Herselt Blauberg kerk","51.044148","4.930128","https://www.delijn.be/nl/haltes/109068","1"
"207979","207979","Meerbeke Roesbeke","50.829935","4.056653","https://www.delijn.be/nl/haltes/207979","0"
"107383","107383","Meer Heydeberg","51.430834","4.752994","https://www.delijn.be/nl/haltes/107383","0"
"508536","508536","Markegem Kerk","50.944960","3.400795","https://www.delijn.be/nl/haltes/508536","0"
"410708","410708","Wellen Loystraat","50.850514","5.357860","https://www.delijn.be/nl/haltes/410708","1"
"515230","515230","Ledegem Boonhoek","50.861186","3.134877","https://www.delijn.be/nl/haltes/515230","0"
"101849","101849","Waarloos Hondstraat","51.107005","4.438852","https://www.delijn.be/nl/haltes/101849","0"
"108467","108467","Schriek Langstraat","51.019385","4.710138","https://www.delijn.be/nl/haltes/108467","0"
"108134","108134","Sint-Katelijne-Waver Hagelstein","51.055067","4.545400","https://www.delijn.be/nl/haltes/108134","0"
"209491","209491","Sint-Martens-Latem Oase","51.000781","3.629238","https://www.delijn.be/nl/haltes/209491","0"
"305093","305093","Oorbeek Kapel","50.797483","4.892604","https://www.delijn.be/nl/haltes/305093","0"
"401152","401152","Borgloon Weg naar Grootloon","50.792765","5.376027","https://www.delijn.be/nl/haltes/401152","0"
"108255","108255","Edegem Mechelsesteenweg","51.156027","4.459174","https://www.delijn.be/nl/haltes/108255","0"
"207234","207234","Meldert Kerk","50.932160","4.133302","https://www.delijn.be/nl/haltes/207234","0"
"400747","400747","Grote-Spouwen Biestertstraat","50.830539","5.544139","https://www.delijn.be/nl/haltes/400747","0"
"407537","407537","Ulbeek Vogeleindestraat","50.830817","5.286282","https://www.delijn.be/nl/haltes/407537","0"
"135073","135073","Kalmthout Het Ziel","51.415034","4.473212","https://www.delijn.be/nl/haltes/135073","0"
"101072","101072","Hemiksem Heiligstraat","51.150748","4.349624","https://www.delijn.be/nl/haltes/101072","0"
"235103","235103","Gent Veeweg","51.081016","3.748846","https://www.delijn.be/nl/haltes/235103","0"
"352907","352907","Heverlee Pakenstraat","50.863040","4.711750","https://www.delijn.be/nl/haltes/352907","0"
"404140","404140","Eversel Everselkiezel","51.023412","5.237600","https://www.delijn.be/nl/haltes/404140","1"
"203195","203195","Sint-Martens-Latem Twee Dreven","51.005757","3.625924","https://www.delijn.be/nl/haltes/203195","0"
"300076","300076","Gelrode Carrosserie","50.971862","4.800710","https://www.delijn.be/nl/haltes/300076","0"
"408684","408684","'s-Herenelderen Bavershoeve","50.804818","5.501105","https://www.delijn.be/nl/haltes/408684","0"
"501444","501444","Westkerke Pardoenstraat","51.158729","3.019325","https://www.delijn.be/nl/haltes/501444","0"
"406083","406083","Opoeteren Kerkstraat","51.065338","5.654852","https://www.delijn.be/nl/haltes/406083","0"
"307077","307077","Kessel-Lo Boven-Lo","50.875921","4.756666","https://www.delijn.be/nl/haltes/307077","0"
"214589","214589","Lokeren Mosten","51.080439","3.996455","https://www.delijn.be/nl/haltes/214589","0"
"410136","410136","Voroux-Les-Liers Chaussée de Tongres No 60","50.687212","5.538789","https://www.delijn.be/nl/haltes/410136","0"
"454280","454280","Heusden Geenrijt","51.030529","5.271395","https://www.delijn.be/nl/haltes/454280","0"
"409567","409567","Rijkhoven Winterberg","50.836266","5.520151","https://www.delijn.be/nl/haltes/409567","0"
"507304","507304","Oedelem Driepikkel","51.165366","3.358850","https://www.delijn.be/nl/haltes/507304","1"
"300081","300081","Gelrode Statiestraat","50.966888","4.789708","https://www.delijn.be/nl/haltes/300081","0"
"101332","101332","Weelde Turnhoutseweg","51.394267","4.998121","https://www.delijn.be/nl/haltes/101332","0"
"304293","304293","Strijtem Kerk","50.841217","4.116669","https://www.delijn.be/nl/haltes/304293","0"
"212521","212521","Mariakerke Kollekasteel (Eeklostraat)","51.081335","3.688298","https://www.delijn.be/nl/haltes/212521","0"
"435431","435431","Tongeren Merkenstraat","50.787015","5.481626","https://www.delijn.be/nl/haltes/435431","0"
"306647","306647","Sint-Gillis Fonsny","50.836460","4.339646","https://www.delijn.be/nl/haltes/306647","1"
"507692","507692","Tielt Marialoopsteenweg","50.967852","3.328057","https://www.delijn.be/nl/haltes/507692","0"
"213539","213539","Drongen Bollewerkstraat","51.048528","3.635492","https://www.delijn.be/nl/haltes/213539","0"
"402801","402801","Achel Bergeind","51.249712","5.480196","https://www.delijn.be/nl/haltes/402801","0"
"216353","216353","Sint-Gillis-Bij-Dendermonde Acacialaan","51.015963","4.113631","https://www.delijn.be/nl/haltes/216353","1"
"351873","351873","Tildonk Wakkerzeel Spieke","50.958569","4.672839","https://www.delijn.be/nl/haltes/351873","0"
"200019","200019","Gent Rabot (Begijnhoflaan)","51.059951","3.712130","https://www.delijn.be/nl/haltes/200019","0"
"105514","105514","Brecht Solvijnslaan","51.327961","4.602760","https://www.delijn.be/nl/haltes/105514","1"
"206250","206250","Lede Rammelstraat","50.969666","3.975890","https://www.delijn.be/nl/haltes/206250","0"
"310118","310118","Huizingen Station","50.752200","4.267296","https://www.delijn.be/nl/haltes/310118","0"
"203310","203310","Lotenhulle Pittemstraat","51.053444","3.461041","https://www.delijn.be/nl/haltes/203310","0"
"302785","302785","Erps-Kwerps Erps Watertoren","50.895784","4.533382","https://www.delijn.be/nl/haltes/302785","0"
"106341","106341","Merksplas Moerstraat","51.352380","4.868815","https://www.delijn.be/nl/haltes/106341","0"
"302321","302321","Linden Koningsveld","50.892055","4.776874","https://www.delijn.be/nl/haltes/302321","0"
"200269","200269","Gent Zuid perron 4","51.047939","3.731437","https://www.delijn.be/nl/haltes/200269","0"
"410159","410159","Schoot Everslag","51.062543","5.026279","https://www.delijn.be/nl/haltes/410159","0"
"155663","155663","Schoten Villerslei","51.251437","4.508353","https://www.delijn.be/nl/haltes/155663","0"
"307958","307958","Geetbets Hogenstraat","50.884460","5.093565","https://www.delijn.be/nl/haltes/307958","0"
"301556","301556","Glabbeek-Zuurbemde Kapelleke","50.874528","4.942084","https://www.delijn.be/nl/haltes/301556","0"
"235267","235267","Olsene Aertstraat","50.934888","3.458466","https://www.delijn.be/nl/haltes/235267","0"
"401892","401892","Diepenbeek Muggenbergstraat","50.898535","5.434104","https://www.delijn.be/nl/haltes/401892","0"
"512042","512042","Oostkamp Meulestee","51.179853","3.237243","https://www.delijn.be/nl/haltes/512042","0"
"106646","106646","Weelde Weeldestraat","51.412854","5.013494","https://www.delijn.be/nl/haltes/106646","0"
"106437","106437","Massenhoven Gebroken Loop","51.203677","4.647911","https://www.delijn.be/nl/haltes/106437","1"
"201393","201393","Gent Zuid perron 8","51.048219","3.731001","https://www.delijn.be/nl/haltes/201393","1"
"406908","406908","Neerpelt Damheidestraat","51.237371","5.459677","https://www.delijn.be/nl/haltes/406908","0"
"516244","516244","Nieuwpoort Industriezone Sint-Joris","51.128112","2.768257","https://www.delijn.be/nl/haltes/516244","1"
"503339","503339","Kortemark Ma Campagne","51.040218","3.055840","https://www.delijn.be/nl/haltes/503339","0"
"308020","308020","Sint-Joris-Winge Heikenstraat","50.920955","4.870374","https://www.delijn.be/nl/haltes/308020","0"
"458533","458533","Tongeren Hommelenberg","50.784627","5.484098","https://www.delijn.be/nl/haltes/458533","0"
"535195","535195","Sint-Pieters Blauwe Toren B-Park","51.248979","3.194539","https://www.delijn.be/nl/haltes/535195","0"
"202297","202297","Aalter Weststraat","51.111686","3.435530","https://www.delijn.be/nl/haltes/202297","0"
"404115","404115","Boekt Poelenstraat","51.010950","5.278273","https://www.delijn.be/nl/haltes/404115","0"
"216038","216038","Aalst Esplanade","50.940830","4.035735","https://www.delijn.be/nl/haltes/216038","0"
"306843","306843","Langdorp Papenkant","51.006131","4.859690","https://www.delijn.be/nl/haltes/306843","0"
"507350","507350","Lichtervelde Astridlaan","51.026667","3.143697","https://www.delijn.be/nl/haltes/507350","0"
"410854","410854","Beverst WZC Beversthuis","50.889979","5.480842","https://www.delijn.be/nl/haltes/410854","0"
"106628","106628","Ravels Kerk","51.371063","4.993767","https://www.delijn.be/nl/haltes/106628","0"
"208053","208053","Deftinge Wassegemstraat","50.789100","3.838875","https://www.delijn.be/nl/haltes/208053","0"
"514697","514697","Poperinge Nijverheidsstraat","50.851251","2.741235","https://www.delijn.be/nl/haltes/514697","0"
"307164","307164","Diest Station perron 2","50.993083","5.050030","https://www.delijn.be/nl/haltes/307164","1"
"219074","219074","Nukerke van Parmadreef","50.770485","3.629658","https://www.delijn.be/nl/haltes/219074","0"
"109795","109795","Mechelen Procter & Gamble","51.015632","4.458312","https://www.delijn.be/nl/haltes/109795","0"
"200104","200104","Gent Heilig-Kerst","51.063922","3.729112","https://www.delijn.be/nl/haltes/200104","0"
"350833","350833","Anderlecht Sint-Guido","50.834143","4.304990","https://www.delijn.be/nl/haltes/350833","0"
"108947","108947","Kasterlee Venheide","51.233639","4.971514","https://www.delijn.be/nl/haltes/108947","0"
"200017","200017","Gent Nieuwevaartbrug","51.063979","3.703341","https://www.delijn.be/nl/haltes/200017","1"
"204503","204503","Kallo Kruisdijklaan","51.247845","4.275634","https://www.delijn.be/nl/haltes/204503","0"
"207247","207247","Wichelen Hulst","50.992817","3.973696","https://www.delijn.be/nl/haltes/207247","0"
"202022","202022","Sleidinge Wurmstraat","51.121998","3.676941","https://www.delijn.be/nl/haltes/202022","0"
"310456","310456","Overijse Zavelenborre","50.769806","4.504927","https://www.delijn.be/nl/haltes/310456","0"
"504014","504014","Alveringem Nieuwe Herberg","51.006337","2.683816","https://www.delijn.be/nl/haltes/504014","0"
"104720","104720","Antwerpen Meir Metro","51.218322","4.406043","https://www.delijn.be/nl/haltes/104720","0"
"201224","201224","Gent Eendrachtstraat","51.050618","3.740811","https://www.delijn.be/nl/haltes/201224","0"
"310478","310478","Asse Buda","50.920326","4.177920","https://www.delijn.be/nl/haltes/310478","0"
"205403","205403","Stekene Colputstraat","51.191595","4.024420","https://www.delijn.be/nl/haltes/205403","0"
"506782","506782","Koksijde Zonstraat","51.102744","2.624381","https://www.delijn.be/nl/haltes/506782","0"
"407581","407581","SMV De Plank","50.751964","5.846532","https://www.delijn.be/nl/haltes/407581","0"
"208488","208488","Nederboelare Molendreef","50.781039","3.874293","https://www.delijn.be/nl/haltes/208488","0"
"407323","407323","Bree Regenboogstraat","51.139350","5.605891","https://www.delijn.be/nl/haltes/407323","0"
"201605","201605","Landskouter Rooberg","50.965845","3.798164","https://www.delijn.be/nl/haltes/201605","0"
"305059","305059","Hakendover Wangestraat","50.797325","5.004608","https://www.delijn.be/nl/haltes/305059","0"
"512427","512427","Sint-Kruis Kerk (Boogschutterslaan)","51.214683","3.249529","https://www.delijn.be/nl/haltes/512427","0"
"302583","302583","Kersbeek-Miskom Aldra","50.897755","5.023901","https://www.delijn.be/nl/haltes/302583","0"
"305236","305236","Mark Station","50.695514","4.007584","https://www.delijn.be/nl/haltes/305236","0"
"109733","109733","Lier Molenstraat","51.126548","4.579398","https://www.delijn.be/nl/haltes/109733","0"
"356063","356063","Sint-Genesius-Rode Astrid","50.742675","4.381061","https://www.delijn.be/nl/haltes/356063","0"
"501381","501381","Slijpe Dorp","51.155475","2.847122","https://www.delijn.be/nl/haltes/501381","0"
"507517","507517","Torhout Wolgastraat","51.064874","3.118791","https://www.delijn.be/nl/haltes/507517","0"
"502722","502722","Koolkerke Zagersweg","51.229409","3.244812","https://www.delijn.be/nl/haltes/502722","0"
"203590","203590","Desteldonk Koemeersstraat","51.121681","3.787027","https://www.delijn.be/nl/haltes/203590","0"
"207136","207136","Nederhasselt Groenstraat","50.861838","3.971145","https://www.delijn.be/nl/haltes/207136","0"
"205284","205284","Zwijndrecht Dorp","51.219091","4.325738","https://www.delijn.be/nl/haltes/205284","0"
"508150","508150","Geluwe Koelberg","50.819469","3.042938","https://www.delijn.be/nl/haltes/508150","0"
"502263","502263","Lichtervelde Mosselstraat","51.030387","3.148768","https://www.delijn.be/nl/haltes/502263","0"
"109322","109322","Ramsel Madestraat","51.014749","4.840710","https://www.delijn.be/nl/haltes/109322","1"
"404087","404087","Herk-de-Stad Rusthuis","50.930672","5.165969","https://www.delijn.be/nl/haltes/404087","0"
"509149","509149","Ieper Augustijnenstraat","50.850047","2.857535","https://www.delijn.be/nl/haltes/509149","1"
"204995","204995","Merchtem Burchtlaan","50.960863","4.233199","https://www.delijn.be/nl/haltes/204995","0"
"508915","508915","Zwevegem Brandweer","50.812448","3.338969","https://www.delijn.be/nl/haltes/508915","0"
"402620","402620","Vorsen Brouwerijstraat","50.704313","5.172727","https://www.delijn.be/nl/haltes/402620","0"
"402722","402722","Zelem Kruisstraat","50.972547","5.116683","https://www.delijn.be/nl/haltes/402722","0"
"306955","306955","Vissenaken Sint-Pieterskerk","50.835798","4.910292","https://www.delijn.be/nl/haltes/306955","0"
"107233","107233","Sint-Lenaarts Paaltjesdreef","51.323826","4.679906","https://www.delijn.be/nl/haltes/107233","0"
"107064","107064","Herentals Station perron 1","51.181319","4.829955","https://www.delijn.be/nl/haltes/107064","0"
"306823","306823","Rillaar Schuttersveste","50.979887","4.905307","https://www.delijn.be/nl/haltes/306823","0"
"509431","509431","Reningelst Hoogte","50.820012","2.757734","https://www.delijn.be/nl/haltes/509431","0"
"512466","512466","Sint-Michiels Stokvelde","51.174844","3.210077","https://www.delijn.be/nl/haltes/512466","0"
"219020","219020","Onkerzele Provinciaal Domein De Gavers","50.787691","3.920798","https://www.delijn.be/nl/haltes/219020","0"
"408513","408513","Ketsingen Dorp","50.798289","5.509199","https://www.delijn.be/nl/haltes/408513","0"
"300495","300495","Bertem Ginisstraat","50.864960","4.639678","https://www.delijn.be/nl/haltes/300495","0"
"302622","302622","Kortenaken Heidestraat","50.905221","5.075754","https://www.delijn.be/nl/haltes/302622","0"
"212066","212066","Gent de Mirabellostraat","51.058158","3.713970","https://www.delijn.be/nl/haltes/212066","1"
"107764","107764","Antwerpen Bostonstraat","51.260762","4.422476","https://www.delijn.be/nl/haltes/107764","0"
"301784","301784","Humbeek Slikkestraat","50.965986","4.392687","https://www.delijn.be/nl/haltes/301784","1"
"310127","310127","Groot-Bijgaarden Don Bosco","50.870788","4.259174","https://www.delijn.be/nl/haltes/310127","0"
"302114","302114","Asse Nerviërs","50.916667","4.189844","https://www.delijn.be/nl/haltes/302114","0"
"335004","335004","Bekkevoort Hondstraatje","50.936140","4.961819","https://www.delijn.be/nl/haltes/335004","0"
"407040","407040","Kozen Zwarteindestraat","50.886909","5.245541","https://www.delijn.be/nl/haltes/407040","0"
"305009","305009","Tielt-Winge Haksbergenstraat","50.945902","4.904066","https://www.delijn.be/nl/haltes/305009","0"
"406541","406541","Peer Snow Valley","51.126209","5.472684","https://www.delijn.be/nl/haltes/406541","1"
"414063","414063","Maaseik Campus Mosa RT perron 5","51.108381","5.778946","https://www.delijn.be/nl/haltes/414063","0"
"212624","212624","Melle Vogelstraat","51.021859","3.769618","https://www.delijn.be/nl/haltes/212624","0"
"106429","106429","Broechem Beemdenstraat","51.187626","4.622600","https://www.delijn.be/nl/haltes/106429","0"
"203911","203911","Merelbeke Kastanjestraat","50.984856","3.741458","https://www.delijn.be/nl/haltes/203911","0"
"401216","401216","Bree Boneputstraat","51.135619","5.586603","https://www.delijn.be/nl/haltes/401216","1"
"402197","402197","Genk Flekeleerstraat","50.957575","5.484216","https://www.delijn.be/nl/haltes/402197","1"
"310587","310587","Assent Struik noord","50.940663","5.025690","https://www.delijn.be/nl/haltes/310587","0"
"106053","106053","Wijnegem Hoogmolen Kruispunt","51.235870","4.491195","https://www.delijn.be/nl/haltes/106053","0"
"405538","405538","Zonhoven Heivinkstraat","50.989468","5.417561","https://www.delijn.be/nl/haltes/405538","0"
"105378","105378","Heist-op-den-Berg Schaliehoevestraat","51.039317","4.703903","https://www.delijn.be/nl/haltes/105378","0"
"108095","108095","Putte Eksterstraat","51.057181","4.634322","https://www.delijn.be/nl/haltes/108095","0"
"501149","501149","Knokke Het Zwin","51.358621","3.351138","https://www.delijn.be/nl/haltes/501149","1"
"102085","102085","Borgerhout Drink","51.214729","4.434945","https://www.delijn.be/nl/haltes/102085","0"
"201960","201960","Sint-Martens-Latem Paddenhoek","51.010979","3.638107","https://www.delijn.be/nl/haltes/201960","0"
"301071","301071","Sint-Jans-Molenbeek Weststation","50.848810","4.321462","https://www.delijn.be/nl/haltes/301071","1"
"302479","302479","Sint-Joost-ten-Node Sint-Joost","50.849865","4.374236","https://www.delijn.be/nl/haltes/302479","1"
"105512","105512","Brecht Schippersdreef","51.324561","4.597889","https://www.delijn.be/nl/haltes/105512","1"
"206568","206568","Massemen Strop","50.974128","3.865663","https://www.delijn.be/nl/haltes/206568","1"
"302023","302023","Herent Keiberg","50.907652","4.667938","https://www.delijn.be/nl/haltes/302023","0"
"304971","304971","Meensel-Kiezegem Tramstraat","50.896898","4.925352","https://www.delijn.be/nl/haltes/304971","0"
"109614","109614","Onze-Lieve-Vrouw-Waver Sint-Ursula","51.065624","4.578396","https://www.delijn.be/nl/haltes/109614","0"
"106943","106943","Lier Maaikeneveld","51.120437","4.540742","https://www.delijn.be/nl/haltes/106943","0"
"201241","201241","Gent Blaarmeersen (Campinglaan)","51.047848","3.681550","https://www.delijn.be/nl/haltes/201241","0"
"408094","408094","Zepperen Beurs Kabien","50.838621","5.277603","https://www.delijn.be/nl/haltes/408094","0"
"409006","409006","Hamont Haverstraat","51.242992","5.546828","https://www.delijn.be/nl/haltes/409006","0"
"109665","109665","Herentals Station afstaphalte","51.181266","4.829854","https://www.delijn.be/nl/haltes/109665","0"
"109845","109845","Brasschaat Kattekensberg","51.295988","4.463264","https://www.delijn.be/nl/haltes/109845","0"
"204381","204381","Sint-Pauwels Klapdorp","51.191424","4.092891","https://www.delijn.be/nl/haltes/204381","0"
"212035","212035","Baaigem Kerk","50.933429","3.717878","https://www.delijn.be/nl/haltes/212035","0"
"105641","105641","Loenhout Oud-Dorpsstraat","51.403030","4.652688","https://www.delijn.be/nl/haltes/105641","0"
"203520","203520","Kalken Bieststraat","51.035796","3.911713","https://www.delijn.be/nl/haltes/203520","0"
"310239","310239","Wemmel Lindendreef","50.916523","4.316709","https://www.delijn.be/nl/haltes/310239","0"
"201187","201187","Drongen Rozenlaan","51.055374","3.646615","https://www.delijn.be/nl/haltes/201187","0"
"519524","519524","Vlamertinge Krommenelst","50.827933","2.856597","https://www.delijn.be/nl/haltes/519524","0"
"402601","402601","Niel-bij-Sint-Truiden Oude Katsei","50.743360","5.137773","https://www.delijn.be/nl/haltes/402601","0"
"504272","504272","Loker Hoekjes","50.789542","2.772343","https://www.delijn.be/nl/haltes/504272","0"
"510415","510415","De Haan Blauwe Hoevelaan","51.266819","3.032846","https://www.delijn.be/nl/haltes/510415","0"
"207678","207678","Erwetegem Rustoord De Vlamme","50.852702","3.801685","https://www.delijn.be/nl/haltes/207678","0"
"401638","401638","Deurne Stationstraat","51.038246","5.086863","https://www.delijn.be/nl/haltes/401638","0"
"505435","505435","Lo Kloefhoek","50.987094","2.776212","https://www.delijn.be/nl/haltes/505435","0"
"102570","102570","Borgerhout Gitschotellei","51.200418","4.450094","https://www.delijn.be/nl/haltes/102570","0"
"300653","300653","Boortmeerbeek Industrieweg","50.963439","4.580686","https://www.delijn.be/nl/haltes/300653","0"
"308813","308813","Meerbeek Bosveldfarm","50.890503","4.604115","https://www.delijn.be/nl/haltes/308813","0"
"305871","305871","Haacht Jennekensstraat","50.971739","4.622937","https://www.delijn.be/nl/haltes/305871","0"
"101593","101593","Antwerpen Quebecstraat","51.258626","4.421816","https://www.delijn.be/nl/haltes/101593","0"
"135122","135122","Mol Europarcs Zilverstrand","51.209720","5.171881","https://www.delijn.be/nl/haltes/135122","0"
"210067","210067","Wontergem Lammekesstraat","50.992892","3.454155","https://www.delijn.be/nl/haltes/210067","0"
"102533","102533","Vorst Smissestraat","51.080163","5.031830","https://www.delijn.be/nl/haltes/102533","0"
"107912","107912","Gompel Barcelonalei","51.193052","5.161617","https://www.delijn.be/nl/haltes/107912","0"
"503920","503920","Zwevegem Frankrijklaan","50.807996","3.341834","https://www.delijn.be/nl/haltes/503920","0"
"204175","204175","Sint-Niklaas Moleken","51.158992","4.131756","https://www.delijn.be/nl/haltes/204175","0"
"304067","304067","Overijse Oude Abstraat","50.766402","4.598612","https://www.delijn.be/nl/haltes/304067","0"
"400976","400976","Waltwilder Wilderpark","50.861635","5.545875","https://www.delijn.be/nl/haltes/400976","0"
"204338","204338","Haasdonk Boekweithofstraat","51.182900","4.217307","https://www.delijn.be/nl/haltes/204338","0"
"214022","214022","Temse Kapelanielaan","51.139487","4.184843","https://www.delijn.be/nl/haltes/214022","1"
"510069","510069","Woumen Kerk","51.001978","2.869382","https://www.delijn.be/nl/haltes/510069","0"
"511032","511032","Bredene Staessenstraat","51.221731","2.953198","https://www.delijn.be/nl/haltes/511032","0"
"509538","509538","Rumbeke Nieuwe Abelestraat","50.921369","3.170550","https://www.delijn.be/nl/haltes/509538","0"
"304297","304297","Strijtem Ramerstraat","50.837774","4.114219","https://www.delijn.be/nl/haltes/304297","0"
"308618","308618","Tisselt Breendonkstraat","51.043400","4.336026","https://www.delijn.be/nl/haltes/308618","0"
"105786","105786","Wuustwezel Klooster","51.360757","4.555889","https://www.delijn.be/nl/haltes/105786","1"
"305181","305181","Tienen Kabbeekvest","50.812456","4.940987","https://www.delijn.be/nl/haltes/305181","1"
"409547","409547","Bilzen Katteberg","50.861087","5.517544","https://www.delijn.be/nl/haltes/409547","0"
"208800","208800","Sint-Denijs-Boekel Konkelstraat","50.861383","3.702608","https://www.delijn.be/nl/haltes/208800","0"
"407482","407482","Peer O.L. Vrouwlaan","51.142476","5.472832","https://www.delijn.be/nl/haltes/407482","0"
"410044","410044","Lanklaar Rijksweg","51.001756","5.724079","https://www.delijn.be/nl/haltes/410044","0"
"209952","209952","De Pinte Groenpark","50.992604","3.646201","https://www.delijn.be/nl/haltes/209952","0"
"402881","402881","Halen Kerkhof","50.936705","5.098885","https://www.delijn.be/nl/haltes/402881","1"
"512383","512383","Sint-Andries Hans Memlinglaan","51.210877","3.206123","https://www.delijn.be/nl/haltes/512383","0"
"406805","406805","Boxberg Klotstraat","50.974386","5.439445","https://www.delijn.be/nl/haltes/406805","0"
"107437","107437","Oostmalle Lierselei","51.298883","4.734279","https://www.delijn.be/nl/haltes/107437","0"
"515418","515418","Gistel Koolaerd","51.152863","2.948200","https://www.delijn.be/nl/haltes/515418","1"
"307605","307605","Bever Kamstraat","50.717162","3.949008","https://www.delijn.be/nl/haltes/307605","0"
"108384","108384","Putte Hulsbergstraat","51.047365","4.607678","https://www.delijn.be/nl/haltes/108384","0"
"201233","201233","Gent Andrieslaan","51.047776","3.705376","https://www.delijn.be/nl/haltes/201233","0"
"408220","408220","Tessenderlo Broedersschool","51.067397","5.095151","https://www.delijn.be/nl/haltes/408220","0"
"219158","219158","Berchem Berchemstraat","50.794157","3.519914","https://www.delijn.be/nl/haltes/219158","0"
"101672","101672","Mol Gompel Hoeve","51.193622","5.142774","https://www.delijn.be/nl/haltes/101672","0"
"304914","304914","Herent Betlehem","50.905571","4.683000","https://www.delijn.be/nl/haltes/304914","0"
"106713","106713","Weelde Grens","51.401564","4.936693","https://www.delijn.be/nl/haltes/106713","0"
"407519","407519","Hulst Waterstraat 19","51.062635","5.124768","https://www.delijn.be/nl/haltes/407519","0"
"504172","504172","Ieper Oefeningsplein","50.838122","2.865101","https://www.delijn.be/nl/haltes/504172","0"
"307937","307937","Sint-Katherina-Lombeek Jasmijn","50.870899","4.132052","https://www.delijn.be/nl/haltes/307937","0"
"206898","206898","Baasrode Vermylenstraat","51.033263","4.172508","https://www.delijn.be/nl/haltes/206898","0"
"300439","300439","Assent Struikstraat 89","50.939707","5.029512","https://www.delijn.be/nl/haltes/300439","0"
"206178","206178","Opwijk Overweg","50.962736","4.213514","https://www.delijn.be/nl/haltes/206178","0"
"200846","200846","Aalter Oostmolenstraat","51.103090","3.458281","https://www.delijn.be/nl/haltes/200846","0"
"308471","308471","Begijnendijk Wittevinnestraat","51.004305","4.778780","https://www.delijn.be/nl/haltes/308471","0"
"509381","509381","Ploegsteert Kerk","50.726280","2.880795","https://www.delijn.be/nl/haltes/509381","0"
"502551","502551","Zedelgem De Leeuw","51.121478","3.150804","https://www.delijn.be/nl/haltes/502551","1"
"300283","300283","Zellik Industriezone Broekooi","50.892758","4.249646","https://www.delijn.be/nl/haltes/300283","0"
"408859","408859","SGV Ottegraeven","50.749905","5.801158","https://www.delijn.be/nl/haltes/408859","0"
"405880","405880","Werkplaatsen Stevensvennen","51.224098","5.226958","https://www.delijn.be/nl/haltes/405880","1"
"105453","105453","Putte P. Michielslei","51.067802","4.625152","https://www.delijn.be/nl/haltes/105453","0"
"509272","509272","Loker Hoekjes","50.789460","2.772418","https://www.delijn.be/nl/haltes/509272","0"
"301310","301310","Dilbeek Vlinderstraat","50.835814","4.262610","https://www.delijn.be/nl/haltes/301310","0"
"207153","207153","Erembodegem Terjoden Kerk","50.910036","4.027994","https://www.delijn.be/nl/haltes/207153","0"
"107410","107410","Kontich Mechelsesteenweg","51.145580","4.460864","https://www.delijn.be/nl/haltes/107410","0"
"201344","201344","Gent Rerum-Novarumplein","51.022835","3.720538","https://www.delijn.be/nl/haltes/201344","1"
"302642","302642","Kortenaken Verfwinkel","50.912813","5.037908","https://www.delijn.be/nl/haltes/302642","0"
"407633","407633","Heukelom Holstraat","50.811091","5.621391","https://www.delijn.be/nl/haltes/407633","0"
"103160","103160","Mol Zilvermeer","51.223352","5.166818","https://www.delijn.be/nl/haltes/103160","0"
"105306","105306","Stabroek Mispelaarlaan","51.334073","4.359828","https://www.delijn.be/nl/haltes/105306","0"
"205375","205375","Kemzeke Dorp","51.207076","4.075449","https://www.delijn.be/nl/haltes/205375","0"
"207028","207028","Aalst Wijngaardveld","50.960291","4.045129","https://www.delijn.be/nl/haltes/207028","0"
"206965","206965","Westrem Dorpsstraat","50.970538","3.873012","https://www.delijn.be/nl/haltes/206965","0"
"107243","107243","Hove Kerk","51.154285","4.471159","https://www.delijn.be/nl/haltes/107243","0"
"303173","303173","Wijgmaal Sint-Hadrianuskerk","50.926500","4.703038","https://www.delijn.be/nl/haltes/303173","0"
"406315","406315","Maastricht Boschstraat/Maagdendries","50.854359","5.690077","https://www.delijn.be/nl/haltes/406315","0"
"203651","203651","Gent Grensstraat","51.076495","3.715510","https://www.delijn.be/nl/haltes/203651","0"
"510846","510846","Watou Brouwershuis","50.840963","2.639423","https://www.delijn.be/nl/haltes/510846","0"
"305617","305617","Elewijt Hofstade Strand","50.979590","4.505654","https://www.delijn.be/nl/haltes/305617","0"
"102286","102286","Brecht Station Noorderkempen per 5","51.357312","4.632297","https://www.delijn.be/nl/haltes/102286","1"
"403438","403438","Koersel Hazerikstraat","51.082846","5.310092","https://www.delijn.be/nl/haltes/403438","0"
"307608","307608","Vollezele Stwg naar Galmaarden","50.755167","4.026073","https://www.delijn.be/nl/haltes/307608","0"
"435443","435443","Ulbeek Kleinaartstraat","50.841828","5.301581","https://www.delijn.be/nl/haltes/435443","0"
"216596","216596","Sint-Antelinks Huigeveldstraat","50.855086","3.922923","https://www.delijn.be/nl/haltes/216596","0"
"205419","205419","Waasmunster Koningin Astridstraat","51.119828","4.108132","https://www.delijn.be/nl/haltes/205419","0"
"510757","510757","Lombardsijde Weststraat","51.145444","2.756266","https://www.delijn.be/nl/haltes/510757","0"
"307984","307984","Liedekerke Affligemstraat","50.877518","4.097544","https://www.delijn.be/nl/haltes/307984","0"
"310505","310505","Ternat Preflexbaan","50.877202","4.164476","https://www.delijn.be/nl/haltes/310505","0"
"406712","406712","Piringen Mombeekstraat","50.784336","5.405791","https://www.delijn.be/nl/haltes/406712","0"
"512474","512474","Tielt Wielmakerstraat","50.997838","3.344750","https://www.delijn.be/nl/haltes/512474","1"
"209247","209247","Oudenaarde Industriepark","50.868452","3.603163","https://www.delijn.be/nl/haltes/209247","0"
"400946","400946","Kaulille Rietweg","51.183021","5.527745","https://www.delijn.be/nl/haltes/400946","0"
"408675","408675","Ketsingen Dries","50.802262","5.514381","https://www.delijn.be/nl/haltes/408675","0"
"503981","503981","Oekene Ketsersstraat","50.918115","3.160559","https://www.delijn.be/nl/haltes/503981","0"
"400352","400352","Schoor Intermarché","51.165165","5.179193","https://www.delijn.be/nl/haltes/400352","0"
"307430","307430","Aarschot Literstraat","51.003980","4.824555","https://www.delijn.be/nl/haltes/307430","0"
"535242","535242","Zarren Ruiterhoek","51.006620","2.940228","https://www.delijn.be/nl/haltes/535242","0"
"101986","101986","Herentals Kerkstraat","51.175382","4.837190","https://www.delijn.be/nl/haltes/101986","0"
"513966","513966","Rumbeke Sterrebos","50.929432","3.130223","https://www.delijn.be/nl/haltes/513966","0"
"151130","151130","Antwerpen Zwijgerstraat","51.209943","4.397340","https://www.delijn.be/nl/haltes/151130","0"
"205436","205436","Sint-Jansteen Geslechtendijk","51.264027","4.053303","https://www.delijn.be/nl/haltes/205436","0"
"213559","213559","Wontergem Izegemstraat","50.988364","3.457469","https://www.delijn.be/nl/haltes/213559","0"
"108524","108524","Rijmenam Zwart Water","51.013139","4.583663","https://www.delijn.be/nl/haltes/108524","0"
"406631","406631","Meeuwen Luttelmeeuwen","51.112373","5.521059","https://www.delijn.be/nl/haltes/406631","0"
"410372","410372","Schakkebroek Kerk","50.906917","5.201572","https://www.delijn.be/nl/haltes/410372","0"
"105589","105589","Hoogstraten Veiling","51.393342","4.756049","https://www.delijn.be/nl/haltes/105589","0"
"103075","103075","Deurne Menegemlei","51.199661","4.460185","https://www.delijn.be/nl/haltes/103075","0"
"200648","200648","Oosterzele IZOO","50.946711","3.803727","https://www.delijn.be/nl/haltes/200648","0"
"401378","401378","Bree Verloren Koststraat","51.133771","5.593064","https://www.delijn.be/nl/haltes/401378","0"
"104954","104954","Geel Lissenvijver","51.151729","5.045332","https://www.delijn.be/nl/haltes/104954","0"
"108198","108198","Herenthout Markt","51.139017","4.757003","https://www.delijn.be/nl/haltes/108198","0"
"518110","518110","Dentergem Rogier de Kerkhovestraat","50.960319","3.410895","https://www.delijn.be/nl/haltes/518110","0"
"506202","506202","Lombardsijde Dorp","51.149710","2.757570","https://www.delijn.be/nl/haltes/506202","0"
"513825","513825","Vichte Jagershoek","50.842152","3.390819","https://www.delijn.be/nl/haltes/513825","0"
"104204","104204","Retie Brasel","51.241489","5.070400","https://www.delijn.be/nl/haltes/104204","1"
"106282","106282","Merksplas Kweekstraat","51.351589","4.824966","https://www.delijn.be/nl/haltes/106282","0"
"512328","512328","Oostkamp Walstraat","51.151404","3.233957","https://www.delijn.be/nl/haltes/512328","0"
"106040","106040","Wilrijk Wilsonweg","51.162747","4.409538","https://www.delijn.be/nl/haltes/106040","0"
"406999","406999","Nerem Kremersstraat","50.763272","5.509635","https://www.delijn.be/nl/haltes/406999","0"
"310341","310341","Everberg Driesstraat","50.878593","4.549248","https://www.delijn.be/nl/haltes/310341","0"
"202980","202980","Waarschoot Beke Center","51.132442","3.602788","https://www.delijn.be/nl/haltes/202980","0"
"303189","303189","Wilsele Gemeentehuis","50.910915","4.713684","https://www.delijn.be/nl/haltes/303189","0"
"300464","300464","Molenbeek-Wersbeek Muggenberg","50.903260","4.940828","https://www.delijn.be/nl/haltes/300464","0"
"304991","304991","Tielt-Winge Berg","50.940993","4.904153","https://www.delijn.be/nl/haltes/304991","0"
"204478","204478","Sint-Niklaas Driegaaienhoek","51.148968","4.132714","https://www.delijn.be/nl/haltes/204478","0"
"301659","301659","Leerbeek Stelplaats Perron 1","50.781174","4.121025","https://www.delijn.be/nl/haltes/301659","0"
"400697","400697","Bilzen Broedersschool","50.873177","5.517141","https://www.delijn.be/nl/haltes/400697","0"
"304046","304046","Ternat Keizersstraat","50.870846","4.177430","https://www.delijn.be/nl/haltes/304046","0"
"216016","216016","Erembodegem Sporthal Schotte","50.926581","4.051265","https://www.delijn.be/nl/haltes/216016","1"
"209492","209492","Asper Stationsstraat","50.929056","3.646908","https://www.delijn.be/nl/haltes/209492","0"
"102640","102640","Berchem Groenenhoek","51.200191","4.439854","https://www.delijn.be/nl/haltes/102640","0"
"405389","405389","Zonhoven Reuvoortweg","50.978788","5.380380","https://www.delijn.be/nl/haltes/405389","0"
"204646","204646","Rupelmonde Nieuwstraat","51.129892","4.285874","https://www.delijn.be/nl/haltes/204646","0"
"303778","303778","Wolvertem Meusegem","50.963935","4.293281","https://www.delijn.be/nl/haltes/303778","0"
"302619","302619","Drieslinter Stwg op Melkwezer","50.842603","5.059289","https://www.delijn.be/nl/haltes/302619","0"
"305085","305085","Vissenaken In de Zon","50.847862","4.907771","https://www.delijn.be/nl/haltes/305085","1"
"151139","151139","Antwerpen F. Rooseveltplaats afstaphalte","51.221190","4.418017","https://www.delijn.be/nl/haltes/151139","0"
"302749","302749","Kortenberg Beekstraat","50.883840","4.540149","https://www.delijn.be/nl/haltes/302749","0"
"303481","303481","Lubbeek Kwadeschuur","50.879906","4.827902","https://www.delijn.be/nl/haltes/303481","0"
"307956","307956","Geetbets Kasteellaan","50.897759","5.115535","https://www.delijn.be/nl/haltes/307956","0"
"508104","508104","Deerlijk Station","50.835242","3.351053","https://www.delijn.be/nl/haltes/508104","0"
"303449","303449","Linden Kortrijkstraat","50.894121","4.750076","https://www.delijn.be/nl/haltes/303449","0"
"408580","408580","Lauw Daalbroek","50.745111","5.419810","https://www.delijn.be/nl/haltes/408580","0"
"102073","102073","Lier Baron Opsomerlaan","51.134615","4.563556","https://www.delijn.be/nl/haltes/102073","0"
"409514","409514","Opglabbeek Lindeboomke","51.047206","5.593421","https://www.delijn.be/nl/haltes/409514","0"
"301957","301957","Halle Bergensepoort","50.731676","4.231373","https://www.delijn.be/nl/haltes/301957","0"
"435333","435333","Overrepen Berg Tongeren","50.811390","5.425617","https://www.delijn.be/nl/haltes/435333","0"
"202464","202464","Heusden Blauwe Steenstraat","51.035148","3.814184","https://www.delijn.be/nl/haltes/202464","0"
"103813","103813","Deurne Vosstraat","51.190373","4.449248","https://www.delijn.be/nl/haltes/103813","0"
"308963","308963","Sint-Pieters-Leeuw Laekelinde","50.775755","4.262877","https://www.delijn.be/nl/haltes/308963","0"
"405342","405342","Ezemaal Nieuwe Wijk","50.773476","4.993323","https://www.delijn.be/nl/haltes/405342","0"
"104162","104162","Antwerpen Mechelseplein","51.213604","4.405022","https://www.delijn.be/nl/haltes/104162","0"
"303490","303490","Lubbeek School","50.879300","4.843384","https://www.delijn.be/nl/haltes/303490","0"
"307509","307509","Overijse Vossebeek","50.767802","4.542266","https://www.delijn.be/nl/haltes/307509","0"
"106463","106463","Grobbendonk Dorp","51.191357","4.739149","https://www.delijn.be/nl/haltes/106463","0"
"170324","170324","Wuustwezel De Vennekens","51.355177","4.538955","https://www.delijn.be/nl/haltes/170324","0"
"408215","408215","Tessenderlo Baal","51.079505","5.077245","https://www.delijn.be/nl/haltes/408215","0"
"205505","205505","Kallo Fabriekstraat","51.254606","4.276145","https://www.delijn.be/nl/haltes/205505","1"
"406698","406698","Meeuwen Luttelmeeuwen","51.112710","5.521296","https://www.delijn.be/nl/haltes/406698","0"
"106499","106499","Viersel H. Rulstraat","51.188812","4.639854","https://www.delijn.be/nl/haltes/106499","0"
"202163","202163","Lokeren Zamanstraat","51.102398","3.944513","https://www.delijn.be/nl/haltes/202163","0"
"307570","307570","Sint-Laureins-Berchem Brabants trekpaard","50.787136","4.205424","https://www.delijn.be/nl/haltes/307570","0"
"203565","203565","Oostakker Langerbruggestraat","51.102445","3.759436","https://www.delijn.be/nl/haltes/203565","0"
"206927","206927","Erpe Watertoren","50.944388","3.975873","https://www.delijn.be/nl/haltes/206927","0"
"208153","208153","Sint-Maria-Oudenhove Pendelstraat","50.828389","3.818750","https://www.delijn.be/nl/haltes/208153","0"
"410632","410632","Hasselt Kunstlaan","50.928256","5.342408","https://www.delijn.be/nl/haltes/410632","0"
"503933","503933","Zwevegem Station","50.814683","3.343928","https://www.delijn.be/nl/haltes/503933","0"
"505221","505221","Nieuwmunster Den Leeuw","51.267447","3.113290","https://www.delijn.be/nl/haltes/505221","0"
"201183","201183","Wetteren Giezeveld","51.014732","3.880819","https://www.delijn.be/nl/haltes/201183","0"
"350160","350160","Essene OLV-Kerk","50.901779","4.137045","https://www.delijn.be/nl/haltes/350160","0"
"400215","400215","As Monument A. Dumont","51.012248","5.580082","https://www.delijn.be/nl/haltes/400215","0"
"203868","203868","Oosterzele Boekhoutstraat","50.938193","3.827193","https://www.delijn.be/nl/haltes/203868","0"
"300542","300542","Haasrode Bloemist","50.834405","4.739367","https://www.delijn.be/nl/haltes/300542","0"
"457353","457353","Peer Bokterstraat","51.139410","5.452949","https://www.delijn.be/nl/haltes/457353","0"
"102245","102245","Antwerpen F. Maas","51.255319","4.388653","https://www.delijn.be/nl/haltes/102245","0"
"503702","503702","Kortemark Dorp","51.028569","3.043382","https://www.delijn.be/nl/haltes/503702","1"
"404922","404922","Vliermaalroot Sint-Elooilaan","50.864835","5.426031","https://www.delijn.be/nl/haltes/404922","0"
"402236","402236","Genk Lousbeekstraat","50.944749","5.516830","https://www.delijn.be/nl/haltes/402236","0"
"404164","404164","Heusden Kerk","51.034559","5.282255","https://www.delijn.be/nl/haltes/404164","0"
"105390","105390","Antwerpen Stuivenberg","51.222416","4.436100","https://www.delijn.be/nl/haltes/105390","0"
"510354","510354","Wervik Geluwesesteenweg","50.788575","3.049839","https://www.delijn.be/nl/haltes/510354","0"
"514981","514981","Zonnebeke Westhoek","50.858960","2.958090","https://www.delijn.be/nl/haltes/514981","0"
"102489","102489","Balen Hoolsterberg","51.159938","5.165896","https://www.delijn.be/nl/haltes/102489","0"
"306688","306688","Ternat Neerveldlaan","50.868548","4.164801","https://www.delijn.be/nl/haltes/306688","0"
"308265","308265","Diest Nijverheidslaan","50.989542","5.041868","https://www.delijn.be/nl/haltes/308265","0"
"401098","401098","Jesseren Statieplein","50.803451","5.397866","https://www.delijn.be/nl/haltes/401098","0"
"303162","303162","Wijgmaal Klooster","50.930103","4.696941","https://www.delijn.be/nl/haltes/303162","0"
"204197","204197","Sinaai Hellestraat","51.155952","4.016511","https://www.delijn.be/nl/haltes/204197","0"
"104816","104816","Mechelen Lange Akkerstraat","51.040749","4.447264","https://www.delijn.be/nl/haltes/104816","0"
"402885","402885","Halen Monument","50.937519","5.084293","https://www.delijn.be/nl/haltes/402885","1"
"203191","203191","Sint-Denijs-Westrem Drie Sleutels","51.017540","3.664968","https://www.delijn.be/nl/haltes/203191","1"
"306152","306152","Sint-Anna-Pede Isabellastraat","50.827286","4.219478","https://www.delijn.be/nl/haltes/306152","1"
"105844","105844","Kapellen Marcottedreef","51.344186","4.447278","https://www.delijn.be/nl/haltes/105844","0"
"106262","106262","Merksplas Vogelzangstraat","51.339689","4.858556","https://www.delijn.be/nl/haltes/106262","0"
"305066","305066","Kumtich Vogelzang","50.819304","4.899976","https://www.delijn.be/nl/haltes/305066","0"
"407344","407344","Hechtel Welsh Guardplein","51.125285","5.368684","https://www.delijn.be/nl/haltes/407344","1"
"501358","501358","Oostende Wiegelied","51.212627","2.892864","https://www.delijn.be/nl/haltes/501358","0"
"410559","410559","Lanaken Pyxiscollege Bessemerstraat","50.902953","5.631156","https://www.delijn.be/nl/haltes/410559","0"
"408201","408201","Okselaar Achterheide","51.034815","5.011913","https://www.delijn.be/nl/haltes/408201","0"
"502028","502028","Assebroek Benedictijnen","51.184264","3.234174","https://www.delijn.be/nl/haltes/502028","0"
"103224","103224","Antwerpen Halifaxstraat","51.269395","4.400537","https://www.delijn.be/nl/haltes/103224","0"
"108572","108572","Tisselt Sleperlaan","51.039238","4.354814","https://www.delijn.be/nl/haltes/108572","0"
"205038","205038","Verrebroek Bralstraat","51.270204","4.185595","https://www.delijn.be/nl/haltes/205038","0"
"102929","102929","Westmalle Sint-Jan Berchmans perron 1","51.298780","4.688477","https://www.delijn.be/nl/haltes/102929","0"
"403163","403163","Runkst Heilig Kruis","50.921252","5.326141","https://www.delijn.be/nl/haltes/403163","0"
"501551","501551","Varsenare Licht En Liefde","51.187710","3.136243","https://www.delijn.be/nl/haltes/501551","0"
"305016","305016","Tielt-Winge Keulenstraat","50.932922","4.909233","https://www.delijn.be/nl/haltes/305016","0"
"202385","202385","Oostwinkel Mostmolen","51.145787","3.533836","https://www.delijn.be/nl/haltes/202385","0"
"409583","409583","Grote-Spouwen Pastorijstraat","50.835063","5.554687","https://www.delijn.be/nl/haltes/409583","0"
"302391","302391","Sint-Agatha-Rode Gansdelle","50.763501","4.622435","https://www.delijn.be/nl/haltes/302391","0"
"401551","401551","Diepenbeek Houbrichtstraat","50.877711","5.408945","https://www.delijn.be/nl/haltes/401551","0"
"202447","202447","Ursel Essenbos","51.122994","3.511260","https://www.delijn.be/nl/haltes/202447","0"
"103616","103616","Rijkevorsel Rouwleegd","51.315660","4.775984","https://www.delijn.be/nl/haltes/103616","1"
"514144","514144","Houthulst Markt","50.977552","2.951591","https://www.delijn.be/nl/haltes/514144","0"
"302551","302551","Keerbergen Hansbrug","50.988318","4.644757","https://www.delijn.be/nl/haltes/302551","0"
"310254","310254","Berg Kerk","50.930801","4.541023","https://www.delijn.be/nl/haltes/310254","0"
"301269","301269","Webbekom Centrum","50.973262","5.069298","https://www.delijn.be/nl/haltes/301269","0"
"302714","302714","Erps-Kwerps Haaggatstraat","50.907873","4.585285","https://www.delijn.be/nl/haltes/302714","0"
"301935","301935","Heverlee Milseweg","50.861594","4.712337","https://www.delijn.be/nl/haltes/301935","0"
"357025","357025","Edingen Dodane","50.692061","4.033383","https://www.delijn.be/nl/haltes/357025","0"
"407609","407609","Riemst Vroenhovenweg","50.800133","5.610200","https://www.delijn.be/nl/haltes/407609","0"
"407899","407899","Melveren Kruispunt","50.829836","5.201946","https://www.delijn.be/nl/haltes/407899","0"
"506170","506170","Koksijde Bad","51.120606","2.635316","https://www.delijn.be/nl/haltes/506170","0"
"518038","518038","Bavikhove Haringstraat","50.871799","3.292370","https://www.delijn.be/nl/haltes/518038","0"
"109095","109095","Hoboken Warschaustraat","51.159247","4.349678","https://www.delijn.be/nl/haltes/109095","0"
"306066","306066","Lembeek Mimosa","50.718759","4.217465","https://www.delijn.be/nl/haltes/306066","0"
"307974","307974","Waver Folon","50.721159","4.608902","https://www.delijn.be/nl/haltes/307974","1"
"135033","135033","Brasschaat Hendrik Luytenplein","51.300439","4.481773","https://www.delijn.be/nl/haltes/135033","0"
"503021","503021","Anzegem Station","50.826105","3.495231","https://www.delijn.be/nl/haltes/503021","1"
"303762","303762","Wolvertem Karel Baudewijnslaan","50.956288","4.304641","https://www.delijn.be/nl/haltes/303762","0"
"102229","102229","Brecht Gemeentehuis","51.347663","4.641381","https://www.delijn.be/nl/haltes/102229","0"
"305141","305141","Sint-Margriete-Houtem Veeweidestraat","50.839561","4.962834","https://www.delijn.be/nl/haltes/305141","0"
"302402","302402","Anderlecht Frans Hals","50.826666","4.290540","https://www.delijn.be/nl/haltes/302402","0"
"105950","105950","Hoboken Waaslandstraat","51.186242","4.361939","https://www.delijn.be/nl/haltes/105950","0"
"504104","504104","Haringe Haandekot","50.895526","2.622947","https://www.delijn.be/nl/haltes/504104","0"
"201592","201592","Gent Dupuislaan","51.035809","3.688951","https://www.delijn.be/nl/haltes/201592","0"
"107033","107033","Bouwel Binnenheide","51.167305","4.716791","https://www.delijn.be/nl/haltes/107033","1"
"300185","300185","Asse C.C. Asse","50.911493","4.201887","https://www.delijn.be/nl/haltes/300185","0"
"305596","305596","Herne Bloemendael","50.736034","4.026843","https://www.delijn.be/nl/haltes/305596","0"
"305728","305728","Helen-Bos Spoorwegstraat","50.833837","5.081592","https://www.delijn.be/nl/haltes/305728","0"
"205425","205425","Sint-Jansteen Sint-Janstraat","51.256229","4.061860","https://www.delijn.be/nl/haltes/205425","0"
"302053","302053","Herent Weggevoerdenstraat","50.908634","4.683424","https://www.delijn.be/nl/haltes/302053","0"
"400132","400132","Terkoest Ter Bijsen","50.895884","5.277287","https://www.delijn.be/nl/haltes/400132","0"
"513163","513163","Beveren Linde","50.965522","3.135324","https://www.delijn.be/nl/haltes/513163","0"
"205291","205291","Melsele IJzerstraat","51.219181","4.277382","https://www.delijn.be/nl/haltes/205291","1"
"209397","209397","Ouwegem Beertegemstraat","50.911121","3.604673","https://www.delijn.be/nl/haltes/209397","1"
"535106","535106","Kortemark Station","51.025163","3.042911","https://www.delijn.be/nl/haltes/535106","0"
"215702","215702","Sint-Niklaas AZ Vitaz Zuid","51.160469","4.150248","https://www.delijn.be/nl/haltes/215702","0"
"513010","513010","Anzegem Krommestraat","50.830442","3.486281","https://www.delijn.be/nl/haltes/513010","0"
"435207","435207","Lanaken Pannestraat","50.892262","5.634374","https://www.delijn.be/nl/haltes/435207","0"
"306826","306826","Strijtem Rombaut","50.843731","4.114915","https://www.delijn.be/nl/haltes/306826","0"
"206196","206196","Baardegem Kerk","50.953984","4.140931","https://www.delijn.be/nl/haltes/206196","0"
"509400","509400","Poperinge Bertenplein","50.853948","2.725076","https://www.delijn.be/nl/haltes/509400","0"
"105425","105425","Mortsel T. Reynlaan","51.175322","4.451988","https://www.delijn.be/nl/haltes/105425","1"
"105798","105798","Wuustwezel Voetbalplein","51.396862","4.600191","https://www.delijn.be/nl/haltes/105798","1"
"300698","300698","Roosbeek Groenstraat","50.836495","4.847886","https://www.delijn.be/nl/haltes/300698","0"
"407800","407800","Aalst Kapel","50.779606","5.207039","https://www.delijn.be/nl/haltes/407800","0"
"207123","207123","Denderleeuw Koopwarenstraat","50.886500","4.077369","https://www.delijn.be/nl/haltes/207123","0"
"301421","301421","Lettelingen Handel","50.698523","4.052097","https://www.delijn.be/nl/haltes/301421","0"
"205396","205396","Stekene Prinsenstraat","51.217335","4.020554","https://www.delijn.be/nl/haltes/205396","0"
"305438","305438","Sterrebeek Dorp","50.862081","4.514910","https://www.delijn.be/nl/haltes/305438","0"
"403705","403705","Batsheers Overbroek","50.750338","5.276491","https://www.delijn.be/nl/haltes/403705","0"
"107866","107866","Hingene Kerk","51.103353","4.269302","https://www.delijn.be/nl/haltes/107866","0"
"219045","219045","Kruishoutem Nieuw Plein perron 3","50.902802","3.526655","https://www.delijn.be/nl/haltes/219045","0"
"300196","300196","Asse Heuvelstraat","50.920415","4.161577","https://www.delijn.be/nl/haltes/300196","0"
"106274","106274","Merksplas Molenweg","51.359282","4.851685","https://www.delijn.be/nl/haltes/106274","0"
"407866","407866","Engelmanshoven Groot-Gelmenlaan","50.774698","5.252391","https://www.delijn.be/nl/haltes/407866","0"
"210747","210747","Lokeren De Venne","51.100974","3.913221","https://www.delijn.be/nl/haltes/210747","0"
"301592","301592","Attenrode Wever Kerk","50.857221","4.922248","https://www.delijn.be/nl/haltes/301592","0"
"404128","404128","Bolderberg Kerk","50.988420","5.274204","https://www.delijn.be/nl/haltes/404128","1"
"300656","300656","Boortmeerbeek Kallebeekstraat","50.978619","4.557286","https://www.delijn.be/nl/haltes/300656","0"
"400235","400235","As Station","51.005748","5.603164","https://www.delijn.be/nl/haltes/400235","1"
"401296","401296","Opitter Dreelweg","51.121851","5.650093","https://www.delijn.be/nl/haltes/401296","0"
"308155","308155","Schaffen Blanklaar","51.016934","5.134687","https://www.delijn.be/nl/haltes/308155","0"
"251224","251224","Gent Eendrachtstraat","51.050769","3.740961","https://www.delijn.be/nl/haltes/251224","0"
"211449","211449","Gent Koning Albertbrug (Neermeerskaai)","51.043242","3.711038","https://www.delijn.be/nl/haltes/211449","0"
"106202","106202","Beerse Nieuwe Dreef","51.305949","4.824207","https://www.delijn.be/nl/haltes/106202","1"
"106230","106230","Turnhout Stelplaats","51.321150","4.934295","https://www.delijn.be/nl/haltes/106230","0"
"107049","107049","Grobbendonk Meirendreef","51.175476","4.781487","https://www.delijn.be/nl/haltes/107049","1"
"104760","104760","Edegem Prins Boudewijnlaan","51.156569","4.431327","https://www.delijn.be/nl/haltes/104760","0"
"405264","405264","Veldwezelt Grens","50.858981","5.642705","https://www.delijn.be/nl/haltes/405264","1"
"506452","506452","Zandvoorde Stationsstraat","51.207136","2.974529","https://www.delijn.be/nl/haltes/506452","1"
"103613","103613","Rijkevorsel Rouwleegd","51.316651","4.775315","https://www.delijn.be/nl/haltes/103613","1"
"407444","407444","Peer KMO Panhoven","51.132718","5.468205","https://www.delijn.be/nl/haltes/407444","0"
"307966","307966","Waver Lavoisier","50.735448","4.597678","https://www.delijn.be/nl/haltes/307966","0"
"407084","407084","Nieuwerkerken Driesstraat","50.859933","5.196943","https://www.delijn.be/nl/haltes/407084","0"
"106537","106537","Merksem Catershoflaan","51.254060","4.450971","https://www.delijn.be/nl/haltes/106537","0"
"135212","135212","Vosselaar WZC Hof Ter Dennen","51.299505","4.894228","https://www.delijn.be/nl/haltes/135212","0"
"301642","301642","Kester Plaats","50.764553","4.119314","https://www.delijn.be/nl/haltes/301642","0"
"105036","105036","Mechelen Geerdegemvaart","51.014395","4.482760","https://www.delijn.be/nl/haltes/105036","1"
"405814","405814","Grote-Barrier Grote-Barrier","51.235821","5.377199","https://www.delijn.be/nl/haltes/405814","0"
"505695","505695","Wingene De Beer","51.055166","3.305795","https://www.delijn.be/nl/haltes/505695","1"
"104886","104886","Hoboken Smallandlaan","51.180451","4.342567","https://www.delijn.be/nl/haltes/104886","0"
"406156","406156","Boorsem Spekstraat","50.939607","5.717332","https://www.delijn.be/nl/haltes/406156","0"
"306877","306877","Humbeek Brug","50.978396","4.391567","https://www.delijn.be/nl/haltes/306877","0"
"508050","508050","Bellegem De Kat","50.781519","3.300965","https://www.delijn.be/nl/haltes/508050","0"
"551552","551552","Oostduinkerke Vrijheidstraat","51.117615","2.683725","https://www.delijn.be/nl/haltes/551552","0"
"101357","101357","Essen Bibliotheek","51.467024","4.466405","https://www.delijn.be/nl/haltes/101357","0"
"108378","108378","Putte Peulis Kerk","51.038907","4.589829","https://www.delijn.be/nl/haltes/108378","0"
"402893","402893","Loksbergen Klein Frankrijk","50.928433","5.063215","https://www.delijn.be/nl/haltes/402893","0"
"209479","209479","Ophasselt De Kat","50.820469","3.884669","https://www.delijn.be/nl/haltes/209479","1"
"108819","108819","Koningshooikt Leliënlei","51.101162","4.605383","https://www.delijn.be/nl/haltes/108819","0"
"404729","404729","Kessenich Drietak","51.143196","5.783747","https://www.delijn.be/nl/haltes/404729","1"
"104169","104169","Lichtaart Kattenhagenstraat","51.221266","4.911552","https://www.delijn.be/nl/haltes/104169","0"
"435434","435434","Tongeren Oude Blaarstraat","50.781411","5.500209","https://www.delijn.be/nl/haltes/435434","0"
"154999","154999","Antwerpen Olympiade","51.186354","4.391985","https://www.delijn.be/nl/haltes/154999","0"
"524586","524586","Westrozebeke Dorp","50.928179","3.012825","https://www.delijn.be/nl/haltes/524586","0"
"208761","208761","Ronse Viermaartlaan","50.740018","3.589540","https://www.delijn.be/nl/haltes/208761","0"
"171267","171267","Berchem Station perron 21","51.200602","4.430580","https://www.delijn.be/nl/haltes/171267","0"
"402501","402501","Genk Kerkhof","50.957059","5.507463","https://www.delijn.be/nl/haltes/402501","0"
"310019","310019","Aarschot Medisch Centrum","50.993779","4.848000","https://www.delijn.be/nl/haltes/310019","0"
"406436","406436","Maasmechelen Windelsteen","50.982471","5.687274","https://www.delijn.be/nl/haltes/406436","0"
"101175","101175","Deurne Atheneum","51.222309","4.459458","https://www.delijn.be/nl/haltes/101175","0"
"105529","105529","Brecht Broekhovenstraat","51.352085","4.653440","https://www.delijn.be/nl/haltes/105529","0"
"303700","303700","Meise Boechtstraat","50.935598","4.329735","https://www.delijn.be/nl/haltes/303700","0"
"304072","304072","Overijse Pensionaat","50.737361","4.502656","https://www.delijn.be/nl/haltes/304072","0"
"517474","517474","Tielt Wielmakerstraat","50.997562","3.345621","https://www.delijn.be/nl/haltes/517474","1"
"103586","103586","Antwerpen Kinderziekenhuis","51.180849","4.419330","https://www.delijn.be/nl/haltes/103586","0"
"404984","404984","Zammelen Kerk","50.814183","5.406215","https://www.delijn.be/nl/haltes/404984","0"
"406093","406093","Maaseik Oude Barrier","51.085960","5.764568","https://www.delijn.be/nl/haltes/406093","0"
"109996","109996","Mol TISP","51.177437","5.124743","https://www.delijn.be/nl/haltes/109996","0"
"204994","204994","Sint-Laureins Schuurbolder","51.242117","3.495871","https://www.delijn.be/nl/haltes/204994","0"
"109727","109727","Noorderwijk Olenseweg","51.141758","4.841677","https://www.delijn.be/nl/haltes/109727","0"
"404019","404019","Schakkebroek Kustraat","50.913906","5.211992","https://www.delijn.be/nl/haltes/404019","0"
"307276","307276","Steenokkerzeel Oud Station","50.919915","4.500932","https://www.delijn.be/nl/haltes/307276","0"
"105883","105883","Achterbroek Handelaar","51.409169","4.497072","https://www.delijn.be/nl/haltes/105883","0"
"201295","201295","De Pinte Groenpark (afstaphalte)","50.992730","3.646338","https://www.delijn.be/nl/haltes/201295","0"
"208669","208669","Velzeke Sint-Franciscus Ziekenhuis","50.881630","3.780686","https://www.delijn.be/nl/haltes/208669","0"
"307056","307056","Heverlee Groenveld","50.869890","4.684328","https://www.delijn.be/nl/haltes/307056","0"
"206728","206728","Outer Wijk Molenveld","50.837327","3.988737","https://www.delijn.be/nl/haltes/206728","0"
"219112","219112","Ooike Lo","50.870614","3.523552","https://www.delijn.be/nl/haltes/219112","0"
"408672","408672","Tongeren Rode Kruislaan","50.777755","5.449245","https://www.delijn.be/nl/haltes/408672","0"
"103958","103958","Antwerpen Sint-Paulusplaats","51.225615","4.401271","https://www.delijn.be/nl/haltes/103958","0"
"214034","214034","Zele Lindestraat","51.081814","4.045562","https://www.delijn.be/nl/haltes/214034","0"
"400295","400295","Balen Meulenberg","51.172798","5.184709","https://www.delijn.be/nl/haltes/400295","0"
"103330","103330","Antwerpen Paardenmarkt","51.224695","4.415257","https://www.delijn.be/nl/haltes/103330","1"
"109590","109590","Geel Weg naar Thomas More","51.163919","4.961353","https://www.delijn.be/nl/haltes/109590","0"
"202312","202312","Lotenhulle Lentakkerstraat","51.035394","3.465896","https://www.delijn.be/nl/haltes/202312","0"
"210555","210555","Petegem-aan-de-Leie Molenstraat","50.967995","3.513429","https://www.delijn.be/nl/haltes/210555","0"
"200660","200660","Melle OCMW","50.998206","3.792164","https://www.delijn.be/nl/haltes/200660","0"
"507198","507198","Hooglede Rodenbachwijk","50.973155","3.086156","https://www.delijn.be/nl/haltes/507198","1"
"409084","409084","Wellen Nutstraat","50.835228","5.339038","https://www.delijn.be/nl/haltes/409084","0"
"306097","306097","Heverlee De Hemptinne","50.852415","4.710843","https://www.delijn.be/nl/haltes/306097","0"
"535113","535113","Langemark Hagebos","50.903289","2.900496","https://www.delijn.be/nl/haltes/535113","0"
"510730","510730","Otegem Otegemplaats","50.807988","3.424064","https://www.delijn.be/nl/haltes/510730","0"
"200072","200072","Gent Rozemarijnbrug","51.049840","3.709623","https://www.delijn.be/nl/haltes/200072","1"
"403746","403746","Heks Kasteel","50.767342","5.364001","https://www.delijn.be/nl/haltes/403746","0"
"535934","535934","Nieuwkerke De Walletjes","50.740764","2.820187","https://www.delijn.be/nl/haltes/535934","0"
"518204","518204","Harelbeke Abdijstraat","50.852367","3.305042","https://www.delijn.be/nl/haltes/518204","0"
"400619","400619","Paal Sint-Sebastiaanstraat","51.043840","5.166608","https://www.delijn.be/nl/haltes/400619","0"
"404016","404016","Donk Dreefstraat","50.940913","5.136464","https://www.delijn.be/nl/haltes/404016","0"
"513030","513030","Avelgem Tuinwijk","50.780840","3.449634","https://www.delijn.be/nl/haltes/513030","0"
"304118","304118","Overijse Michielsplein","50.769357","4.603085","https://www.delijn.be/nl/haltes/304118","0"
"512354","512354","Ruddervoorde Baliebrugge Kerk","51.076806","3.172233","https://www.delijn.be/nl/haltes/512354","0"
"157382","157382","Heist-op-den-Berg Jozef Weynsstraat","51.073711","4.713579","https://www.delijn.be/nl/haltes/157382","0"
"106864","106864","Boom Kerkhof","51.094881","4.382545","https://www.delijn.be/nl/haltes/106864","0"
"108454","108454","Bonheiden Gemeentehuis","51.026446","4.549635","https://www.delijn.be/nl/haltes/108454","0"
"201010","201010","Wondelgem Roodborstjesstraat","51.081772","3.705246","https://www.delijn.be/nl/haltes/201010","1"
"570033","570033","Menen Terminushalte Begraafplaats","50.810239","3.111486","https://www.delijn.be/nl/haltes/570033","0"
"305100","305100","Oplinter Herestraat","50.832784","4.980556","https://www.delijn.be/nl/haltes/305100","0"
"402167","402167","Genk College","50.973697","5.518411","https://www.delijn.be/nl/haltes/402167","1"
"301254","301254","Kaggevinne Galgeveldstraat","50.974005","5.039656","https://www.delijn.be/nl/haltes/301254","0"
"203968","203968","Lokeren Vogelzangstraat","51.076587","3.947349","https://www.delijn.be/nl/haltes/203968","0"
"310702","310702","Schepdaal Centrum","50.838427","4.195833","https://www.delijn.be/nl/haltes/310702","0"
"306933","306933","Tienen Grimde Kerk","50.800790","4.953923","https://www.delijn.be/nl/haltes/306933","0"
"304042","304042","Mechelen Lindestraat","51.000155","4.479440","https://www.delijn.be/nl/haltes/304042","0"
"102137","102137","Lichtaart Sportterrein","51.234649","4.920342","https://www.delijn.be/nl/haltes/102137","0"
"170322","170322","Stabroek Moretuslei","51.352754","4.394337","https://www.delijn.be/nl/haltes/170322","0"
"503705","503705","Roeselare Hellestraat","50.956342","3.084617","https://www.delijn.be/nl/haltes/503705","0"
"217574","217574","Smetlede Serskampstraat","50.967149","3.937080","https://www.delijn.be/nl/haltes/217574","0"
"509897","509897","Oostende Parking","51.223531","2.925443","https://www.delijn.be/nl/haltes/509897","0"
"109991","109991","Millegem Kerk","51.188187","5.079258","https://www.delijn.be/nl/haltes/109991","0"
"308491","308491","Begijnendijk Mechelbaan","51.027024","4.779005","https://www.delijn.be/nl/haltes/308491","0"
"235175","235175","Lochristi Burgemeester-Vermeulenlaan","51.101900","3.833534","https://www.delijn.be/nl/haltes/235175","0"
"355742","355742","Zoutleeuw Post","50.830523","5.108857","https://www.delijn.be/nl/haltes/355742","0"
"101722","101722","Kapellen Oude Ertbrandstraat","51.347059","4.400056","https://www.delijn.be/nl/haltes/101722","0"
"106857","106857","Boom Voetballersstraat","51.089880","4.374195","https://www.delijn.be/nl/haltes/106857","0"
"202364","202364","Lovendegem Bierstal","51.092489","3.645358","https://www.delijn.be/nl/haltes/202364","0"
"300543","300543","Haasrode Bloemist","50.834513","4.739313","https://www.delijn.be/nl/haltes/300543","0"
"410672","410672","Echt Station","51.099693","5.878125","https://www.delijn.be/nl/haltes/410672","0"
"208622","208622","Onkerzele Koolpot","50.783515","3.898011","https://www.delijn.be/nl/haltes/208622","0"
"212047","212047","Lovendegem Laagland","51.103030","3.615180","https://www.delijn.be/nl/haltes/212047","0"
"103257","103257","Antwerpen MAS","51.229838","4.403765","https://www.delijn.be/nl/haltes/103257","1"
"404558","404558","Wijshagen Grensstraat","51.108844","5.570464","https://www.delijn.be/nl/haltes/404558","0"
"407411","407411","Grote-Brogel Kerk","51.153564","5.505692","https://www.delijn.be/nl/haltes/407411","0"
"408880","408880","SMV Panalpina","50.751280","5.851655","https://www.delijn.be/nl/haltes/408880","0"
"302757","302757","Kortenberg Café Jamar","50.879701","4.541569","https://www.delijn.be/nl/haltes/302757","0"
"106815","106815","Rumst Vosberg","51.085488","4.450535","https://www.delijn.be/nl/haltes/106815","0"
"106955","106955","Duffel Gemeentehuis","51.094639","4.505484","https://www.delijn.be/nl/haltes/106955","0"
"400907","400907","Bocholt Brugstraat","51.175592","5.583248","https://www.delijn.be/nl/haltes/400907","0"
"400686","400686","Neerpelt Lavendelstraat","51.226845","5.449217","https://www.delijn.be/nl/haltes/400686","0"
"213055","213055","Aalter Centrum","51.085716","3.448022","https://www.delijn.be/nl/haltes/213055","0"
"105586","105586","Antwerpen Groenenborgerlaan","51.177015","4.416966","https://www.delijn.be/nl/haltes/105586","1"
"235181","235181","Lochristi Kerkwegelakker","51.093498","3.834157","https://www.delijn.be/nl/haltes/235181","0"
"501397","501397","Stalhille Spanjaardstraat","51.217756","3.074487","https://www.delijn.be/nl/haltes/501397","0"
"107603","107603","Mol Violettenstraat","51.196198","5.115757","https://www.delijn.be/nl/haltes/107603","0"
"304841","304841","Linden Eekhoornlaan","50.904345","4.770193","https://www.delijn.be/nl/haltes/304841","0"
"406131","406131","Aldeneik Hamontweg","51.103661","5.802978","https://www.delijn.be/nl/haltes/406131","0"
"210151","210151","Astene Cederlaan","50.979532","3.567266","https://www.delijn.be/nl/haltes/210151","0"
"103957","103957","Reusel Sportpark","51.356710","5.145215","https://www.delijn.be/nl/haltes/103957","0"
"302658","302658","Ransberg Leidriesstraat","50.861459","5.030986","https://www.delijn.be/nl/haltes/302658","0"
"106991","106991","Lier Maasfortbaan","51.131398","4.588589","https://www.delijn.be/nl/haltes/106991","0"
"401848","401848","Stokkem Kerk","51.020079","5.745728","https://www.delijn.be/nl/haltes/401848","0"
"400967","400967","Reppel Fabriek","51.138001","5.548621","https://www.delijn.be/nl/haltes/400967","1"
"401558","401558","Diepenbeek Marktplein","50.908045","5.420645","https://www.delijn.be/nl/haltes/401558","0"
"107003","107003","Kessel Gemeentehuis","51.139573","4.630140","https://www.delijn.be/nl/haltes/107003","0"
"205299","205299","Beveren-Waas Grote Heidestraat","51.200754","4.230893","https://www.delijn.be/nl/haltes/205299","0"
"209262","209262","Kruishoutem Truweelweg","50.947684","3.537220","https://www.delijn.be/nl/haltes/209262","0"
"408603","408603","Mal Hogeropstraat","50.777261","5.524171","https://www.delijn.be/nl/haltes/408603","0"
"135145","135145","Puurs Alcon Couvreur","51.064758","4.316211","https://www.delijn.be/nl/haltes/135145","0"
"513650","513650","Kortrijk De Hoge Kouter","50.809267","3.302107","https://www.delijn.be/nl/haltes/513650","0"
"109905","109905","Beerse Larenstraat","51.318487","4.841119","https://www.delijn.be/nl/haltes/109905","0"
"200847","200847","Aalter Oostmolen-Zuid","51.104876","3.465042","https://www.delijn.be/nl/haltes/200847","0"
"203097","203097","Kaprijke Molenstraat 66","51.225938","3.619118","https://www.delijn.be/nl/haltes/203097","0"
"206776","206776","Schendelbeke Diebeke","50.794171","3.877721","https://www.delijn.be/nl/haltes/206776","0"
"204036","204036","Kieldrecht Lange Nieuwstraat","51.280983","4.182376","https://www.delijn.be/nl/haltes/204036","0"
"501456","501456","Zeebrugge Kerk","51.331597","3.206904","https://www.delijn.be/nl/haltes/501456","1"
"103863","103863","Putte GC Klein Boom","51.049727","4.614329","https://www.delijn.be/nl/haltes/103863","0"
"135239","135239","Zoersel Monnikenheide - Spectrum","51.261375","4.697280","https://www.delijn.be/nl/haltes/135239","0"
"300613","300613","Lovenjoel Salve Mater","50.855089","4.778936","https://www.delijn.be/nl/haltes/300613","0"
"208717","208717","Zevergem Dorp","50.978624","3.694869","https://www.delijn.be/nl/haltes/208717","0"
"103151","103151","Mol Oude Molenstraat","51.186656","5.096713","https://www.delijn.be/nl/haltes/103151","0"
"377716","377716","Sint-Genesius-Rode Elvis Presley","50.745000","4.394783","https://www.delijn.be/nl/haltes/377716","0"
"408596","408596","Lauw Romeinse Steenweg","50.751481","5.399174","https://www.delijn.be/nl/haltes/408596","0"
"305579","305579","Zaventem Watertorenlaan","50.885493","4.474144","https://www.delijn.be/nl/haltes/305579","0"
"304733","304733","Steenokkerzeel Humelgem Kerk","50.902731","4.517542","https://www.delijn.be/nl/haltes/304733","0"
"307567","307567","Elingen Hoefijzer","50.783096","4.176068","https://www.delijn.be/nl/haltes/307567","0"
"204984","204984","Melle Vijverwegel","51.018212","3.766825","https://www.delijn.be/nl/haltes/204984","0"
"351730","351730","Grimbergen Lintkasteelstraat","50.953845","4.393866","https://www.delijn.be/nl/haltes/351730","0"
"300695","300695","Boutersem Rijkswacht","50.841433","4.833750","https://www.delijn.be/nl/haltes/300695","0"
"502270","502270","Loppem Smisje","51.162388","3.204896","https://www.delijn.be/nl/haltes/502270","1"
"407833","407833","Brustem Dorp","50.796554","5.215297","https://www.delijn.be/nl/haltes/407833","0"
"509426","509426","Poperinge Station perron 2","50.854701","2.736026","https://www.delijn.be/nl/haltes/509426","0"
"301992","301992","Halle Stroppen","50.746031","4.242964","https://www.delijn.be/nl/haltes/301992","1"
"310384","310384","Drogenbos Van Haelen","50.780502","4.324659","https://www.delijn.be/nl/haltes/310384","1"
"202015","202015","Wondelgem Waalbrugstraat","51.101529","3.713111","https://www.delijn.be/nl/haltes/202015","0"
"208337","208337","Etikhove Ladeuze","50.816560","3.622814","https://www.delijn.be/nl/haltes/208337","0"
"435082","435082","Geistingen Seeserweg","51.139706","5.791465","https://www.delijn.be/nl/haltes/435082","0"
"102057","102057","Boom Van Arteveldenstraat","51.101129","4.376434","https://www.delijn.be/nl/haltes/102057","0"
"307688","307688","Linkebeek Van Lishout","50.773188","4.331726","https://www.delijn.be/nl/haltes/307688","0"
"503154","503154","Geluwe Stokstraat","50.802235","3.062559","https://www.delijn.be/nl/haltes/503154","0"
"405673","405673","Overpelt Dorperheidestraat","51.224160","5.409105","https://www.delijn.be/nl/haltes/405673","0"
"108514","108514","Bonheiden Imeldalaan","51.020483","4.557292","https://www.delijn.be/nl/haltes/108514","0"
"212518","212518","Gent Haardstedestraat","51.018832","3.719327","https://www.delijn.be/nl/haltes/212518","0"
"405588","405588","Leopoldsburg Kerk Strooien Dorp","51.133529","5.255340","https://www.delijn.be/nl/haltes/405588","0"
"508295","508295","Ingooigem Zwevegemstraat","50.819418","3.427908","https://www.delijn.be/nl/haltes/508295","1"
"403117","403117","Hasselt Station perron 6","50.931257","5.327211","https://www.delijn.be/nl/haltes/403117","0"
"102193","102193","Essen Station","51.463509","4.451211","https://www.delijn.be/nl/haltes/102193","0"
"213707","213707","Assenede Leegstraat","51.235553","3.739652","https://www.delijn.be/nl/haltes/213707","0"
"207546","207546","Zonnegem Kerk","50.927591","3.907519","https://www.delijn.be/nl/haltes/207546","1"
"208345","208345","Schorisse Leideveld","50.797592","3.674351","https://www.delijn.be/nl/haltes/208345","0"
"301334","301334","Itterbeek Molenbergstraat","50.843553","4.239720","https://www.delijn.be/nl/haltes/301334","0"
"305261","305261","Sint-Pieters-Kapelle Kerk","50.707227","3.989869","https://www.delijn.be/nl/haltes/305261","0"
"335007","335007","Bekkevoort Steenberg","50.955069","4.977417","https://www.delijn.be/nl/haltes/335007","0"
"503790","503790","Sint-Eloois-Vijve Transvaal","50.900370","3.404018","https://www.delijn.be/nl/haltes/503790","0"
"404179","404179","Heusden Ubbersel","51.019509","5.249699","https://www.delijn.be/nl/haltes/404179","1"
"305908","305908","Grimbergen Tangedal","50.924263","4.398267","https://www.delijn.be/nl/haltes/305908","0"
"207145","207145","Denderhoutem Daal","50.883249","4.010239","https://www.delijn.be/nl/haltes/207145","0"
"208468","208468","Steenhuize-Wijnhuize Gentweg","50.835801","3.872565","https://www.delijn.be/nl/haltes/208468","0"
"506466","506466","Zuienkerke Assestraat","51.278956","3.170810","https://www.delijn.be/nl/haltes/506466","0"
"203429","203429","Ertvelde Rieme Kerk","51.174385","3.783724","https://www.delijn.be/nl/haltes/203429","1"
"305957","305957","Hever Schiplaken Kerk","50.980159","4.529217","https://www.delijn.be/nl/haltes/305957","1"
"307763","307763","Elingen Kapel","50.773808","4.170757","https://www.delijn.be/nl/haltes/307763","0"
"300334","300334","Alsemberg Domein Rondenbos","50.751686","4.333160","https://www.delijn.be/nl/haltes/300334","1"
"106975","106975","Itegem Zagerij","51.094879","4.732303","https://www.delijn.be/nl/haltes/106975","0"
"104453","104453","Heindonk Hazewinkel","51.061091","4.406539","https://www.delijn.be/nl/haltes/104453","0"
"400570","400570","Koersel Ulfortstraat","51.074734","5.214294","https://www.delijn.be/nl/haltes/400570","0"
"508770","508770","Staden Dorp","50.974548","3.015585","https://www.delijn.be/nl/haltes/508770","0"
"507440","507440","Sint-Kruis Watertoren","51.210136","3.253866","https://www.delijn.be/nl/haltes/507440","0"
"535936","535936","Diksmuide Damprémystraat","51.037135","2.872286","https://www.delijn.be/nl/haltes/535936","0"
"204041","204041","Verrebroek Aven Ackers","51.250280","4.189570","https://www.delijn.be/nl/haltes/204041","0"
"408905","408905","SPV/FSP Roth","50.716316","5.840999","https://www.delijn.be/nl/haltes/408905","0"
"103500","103500","Antwerpen Kronenburgstraat","51.211614","4.400820","https://www.delijn.be/nl/haltes/103500","0"
"104396","104396","Antwerpen Hof Ter Schelde","51.232406","4.378611","https://www.delijn.be/nl/haltes/104396","0"
"108154","108154","Berlaar Heidestraat","51.091050","4.670212","https://www.delijn.be/nl/haltes/108154","0"
"305742","305742","Zoutleeuw Post","50.831070","5.107891","https://www.delijn.be/nl/haltes/305742","0"
"106168","106168","Lier Komeetstraat","51.140689","4.567703","https://www.delijn.be/nl/haltes/106168","0"
"408629","408629","Nerem Neremplein","50.768246","5.518218","https://www.delijn.be/nl/haltes/408629","1"
"505269","505269","Sint-Denijs De Kloef","50.764211","3.360309","https://www.delijn.be/nl/haltes/505269","0"
"518552","518552","Menen Menen-Oost","50.813159","3.121073","https://www.delijn.be/nl/haltes/518552","0"
"207344","207344","Lebbeke Opstalstraat","51.003821","4.158250","https://www.delijn.be/nl/haltes/207344","0"
"522293","522293","Dentergem Abbeloos","50.962918","3.424380","https://www.delijn.be/nl/haltes/522293","0"
"307417","307417","Schoonderbuken Dijlelaan","50.974860","4.948089","https://www.delijn.be/nl/haltes/307417","0"
"304566","304566","Sint-Pieters-Leeuw Bierdepot","50.784246","4.229711","https://www.delijn.be/nl/haltes/304566","0"
"207473","207473","Kerksken Hofstraat","50.886206","3.980898","https://www.delijn.be/nl/haltes/207473","1"
"435184","435184","Koersel Kanaalstraat","51.072396","5.206826","https://www.delijn.be/nl/haltes/435184","0"
"504631","504631","Woumen Zwarte Dreef","51.010887","2.869304","https://www.delijn.be/nl/haltes/504631","0"
"507315","507315","Oedelem Zeldonk","51.147512","3.394076","https://www.delijn.be/nl/haltes/507315","0"
"308718","308718","Heverlee Petrusberg","50.859007","4.717236","https://www.delijn.be/nl/haltes/308718","0"
"404762","404762","Kinrooi Leuerbroek","51.138242","5.752683","https://www.delijn.be/nl/haltes/404762","0"
"435513","435513","Lindeman Wilderozenstraat","51.052766","5.332055","https://www.delijn.be/nl/haltes/435513","0"
"105743","105743","Brasschaat Prins Kavellei","51.296381","4.497554","https://www.delijn.be/nl/haltes/105743","1"
"310312","310312","Sint-Katherina-Lombeek Klaverstraat","50.881125","4.129632","https://www.delijn.be/nl/haltes/310312","0"
"310452","310452","Rumsdorp Kerk","50.767222","5.075256","https://www.delijn.be/nl/haltes/310452","0"
"302679","302679","Waanrode Hoeve","50.906021","5.005213","https://www.delijn.be/nl/haltes/302679","0"
"509430","509430","Poperinge Voorstad","50.855799","2.713477","https://www.delijn.be/nl/haltes/509430","1"
"307549","307549","Outgaarden Kerk","50.765854","4.918956","https://www.delijn.be/nl/haltes/307549","0"
"308754","308754","Herent Sergeystraat","50.902724","4.675725","https://www.delijn.be/nl/haltes/308754","0"
"409574","409574","Hasselt Infrax","50.937324","5.365287","https://www.delijn.be/nl/haltes/409574","0"
"535151","535151","Oostnieuwkerke Hoge","50.943718","3.085669","https://www.delijn.be/nl/haltes/535151","0"
"102590","102590","Antwerpen Gounod","51.205557","4.410111","https://www.delijn.be/nl/haltes/102590","0"
"108683","108683","Koningshooikt Beek","51.086133","4.616130","https://www.delijn.be/nl/haltes/108683","0"
"300721","300721","Boutersem Schoolstraat","50.829354","4.835096","https://www.delijn.be/nl/haltes/300721","0"
"306956","306956","Vissenaken Sint-Pietersstraat","50.837127","4.905391","https://www.delijn.be/nl/haltes/306956","0"
"407662","407662","Membruggen Rijkerstraat","50.818215","5.527522","https://www.delijn.be/nl/haltes/407662","0"
"201842","201842","Nazareth Wulvestraat","50.948072","3.580611","https://www.delijn.be/nl/haltes/201842","0"
"308493","308493","Begijnendijk Overweg Mechelbaan","51.028191","4.790001","https://www.delijn.be/nl/haltes/308493","0"
"213478","213478","Wetteren Tragelweg","51.008936","3.881035","https://www.delijn.be/nl/haltes/213478","0"
"400526","400526","Beringen Kanaalbrug","51.045506","5.212293","https://www.delijn.be/nl/haltes/400526","0"
"408556","408556","Leopoldsburg Sociaal Huis","51.120461","5.260374","https://www.delijn.be/nl/haltes/408556","0"
"154426","154426","Waarloos Oude Baan","51.107440","4.450938","https://www.delijn.be/nl/haltes/154426","0"
"101795","101795","Antwerpen deSingel","51.194857","4.403286","https://www.delijn.be/nl/haltes/101795","0"
"407752","407752","Zichen Visesteenweg","50.793216","5.626556","https://www.delijn.be/nl/haltes/407752","0"
"109830","109830","Brasschaat Het Innemen","51.308783","4.493497","https://www.delijn.be/nl/haltes/109830","0"
"108013","108013","Wuustwezel Bosduinstraat","51.352738","4.544157","https://www.delijn.be/nl/haltes/108013","0"
"502821","502821","Sint-Michiels Station West","51.198167","3.214746","https://www.delijn.be/nl/haltes/502821","1"
"308617","308617","Tisselt Breendonkstraat","51.043278","4.336029","https://www.delijn.be/nl/haltes/308617","0"
"509907","509907","Kortrijk AZ Groeninge","50.800605","3.265730","https://www.delijn.be/nl/haltes/509907","1"
"511398","511398","Oostende Duinkerkseweg","51.203480","2.903375","https://www.delijn.be/nl/haltes/511398","1"
"103965","103965","Antwerpen Lange Van Bloerstraat","51.220462","4.436147","https://www.delijn.be/nl/haltes/103965","0"
"109613","109613","Olen Haanheuvel","51.164685","4.917819","https://www.delijn.be/nl/haltes/109613","0"
"205622","205622","Burcht Zwijndrechtsestraat","51.206410","4.338306","https://www.delijn.be/nl/haltes/205622","0"
"400496","400496","Lixhe Halembay","50.770271","5.663517","https://www.delijn.be/nl/haltes/400496","0"
"205977","205977","Oudenaarde Nieuwstraat","50.851150","3.588070","https://www.delijn.be/nl/haltes/205977","0"
"206427","206427","Hillegem Kerkhof","50.896507","3.846198","https://www.delijn.be/nl/haltes/206427","0"
"109844","109844","Brasschaat Kattekensberg","51.296081","4.463217","https://www.delijn.be/nl/haltes/109844","0"
"151200","151200","Antwerpen Ballaarstraat","51.206035","4.409688","https://www.delijn.be/nl/haltes/151200","0"
"310817","310817","Andrée De Jongh MIVB","50.870948","4.349321","https://www.delijn.be/nl/haltes/310817","0"
"509672","509672","Waregem Regenboogstadion","50.882179","3.428094","https://www.delijn.be/nl/haltes/509672","0"
"404033","404033","Berbroek Bosstraat I","50.936890","5.211187","https://www.delijn.be/nl/haltes/404033","0"
"300647","300647","Boortmeerbeek Genninckstraat","50.974784","4.589253","https://www.delijn.be/nl/haltes/300647","0"
"302329","302329","Huldenberg Stroobantsweg","50.789818","4.576203","https://www.delijn.be/nl/haltes/302329","0"
"300100","300100","Langdorp Kabien","51.014356","4.928231","https://www.delijn.be/nl/haltes/300100","0"
"210975","210975","Idegem Kerk","50.800257","3.926744","https://www.delijn.be/nl/haltes/210975","0"
"303061","303061","Gaasbeek OLV-Kerk","50.800189","4.189045","https://www.delijn.be/nl/haltes/303061","0"
"307883","307883","Wambeek Brouwerij De Troch","50.853019","4.164799","https://www.delijn.be/nl/haltes/307883","0"
"407865","407865","Neeroeteren Drievekkenweg","51.089072","5.686193","https://www.delijn.be/nl/haltes/407865","0"
"107974","107974","Booischot Het Broek","51.034788","4.741271","https://www.delijn.be/nl/haltes/107974","0"
"301009","301009","Sint-Agatha-Berchem Valida","50.866359","4.303319","https://www.delijn.be/nl/haltes/301009","1"
"109606","109606","Hoogstraten K. Boomstraat","51.402645","4.761841","https://www.delijn.be/nl/haltes/109606","0"
"501607","501607","Blankenberge Memlinglaan","51.311280","3.147830","https://www.delijn.be/nl/haltes/501607","0"
"205122","205122","Hamme Roodkruisstraat","51.100344","4.143049","https://www.delijn.be/nl/haltes/205122","1"
"206106","206106","Welle Steenveldlaan","50.895799","4.059399","https://www.delijn.be/nl/haltes/206106","0"
"105847","105847","Kapellen Golflei","51.348596","4.452065","https://www.delijn.be/nl/haltes/105847","0"
"307375","307375","Averbode Levensruimte","51.042657","4.965694","https://www.delijn.be/nl/haltes/307375","0"
"205234","205234","Waasmunster Doornijkstraat","51.123420","4.031061","https://www.delijn.be/nl/haltes/205234","0"
"401976","401976","Alken Bibliotheek","50.872314","5.307404","https://www.delijn.be/nl/haltes/401976","0"
"407499","407499","Peer Rozenlaan","51.138820","5.468325","https://www.delijn.be/nl/haltes/407499","0"
"408507","408507","Tongeren Bilzerpoort","50.783397","5.464193","https://www.delijn.be/nl/haltes/408507","1"
"201664","201664","Zeveren Pijpekerrestraat","51.018408","3.515204","https://www.delijn.be/nl/haltes/201664","0"
"107015","107015","Antwerpen ATT","51.273527","4.388446","https://www.delijn.be/nl/haltes/107015","0"
"203134","203134","Gent Forelstraat","51.049695","3.743432","https://www.delijn.be/nl/haltes/203134","0"
"103030","103030","Deurne J. Scheurweghstraat","51.226933","4.458192","https://www.delijn.be/nl/haltes/103030","0"
"158952","158952","Kasterlee Pater Damiaanstraat","51.230327","4.971934","https://www.delijn.be/nl/haltes/158952","0"
"201512","201512","Gent Guislainbrug","51.065667","3.698774","https://www.delijn.be/nl/haltes/201512","0"
"209209","209209","Sint-Denijs-Boekel Knokstraat","50.870883","3.697244","https://www.delijn.be/nl/haltes/209209","0"
