"stop_id","stop_code","stop_name","stop_desc","stop_lat","stop_lon","location_type","parent_station","wheelchair_boarding","platform_code"
000200403005,"","Belair, Sacré-Coeur",,"49.610276143584","6.113158982491",0,,,""
000200402003,"","Beggen, Cyprien Merjai",,"49.643398821266","6.134778965149",0,,,""
000200402004,"","Beggen, Henri Dunant",,"49.647594387476","6.134546376474",0,,,""
000200304002,"","Howald, Bei der Kierch",,"49.583246490307","6.142332447343",0,,,""
000200417037,"","Kirchberg, Schmëdd",,"49.628363069873","6.149234406593",0,,,""
000200412005,"","Gasperich, Clemenceau",,"49.589887154161","6.127856294909",0,,,""
000200404022,"","Bonnevoie, Kaltreis",,"49.593658147104","6.150830317780",0,,,""
000200419026,"","Limpertsberg, Theater (Bus)",,"49.617926705508","6.125584216033",0,,,""
000200404024,"","Verlorenkost, Laboratoire",,"49.604643176975","6.138090926654",0,,,""
000200417038,"","Kirchberg, Sichegronn",,"49.628383688360","6.151532255091",0,,,""
000200419024,"","Limpertsberg, Lefèvre",,"49.622348923468","6.108096863013",0,,,""
000200425005,"","Rollingergrund, Biischtefabrick",,"49.615138662940","6.116582270313",0,,,""
000200419020,"","Luxembourg, Uni Campus Limpertsberg",,"49.620961620423","6.114507428951",0,,,""
000201004002,"","Walferdange, Gemenge Plaz",,"49.659141646180","6.130749643049",0,,,""
000200801007,"","Steinsel, Schoul",,"49.678017963362","6.123940169614",0,,,""
000200801005,"","Steinsel, Michel Rodange Plaz",,"49.677001407391","6.124665625082",0,,,""
000200801008,"","Steinsel, Um Gruef",,"49.675287240867","6.122299139845",0,,,""
000200801003,"","Steinsel, Gonneschhaff",,"49.671629188281","6.120269489135",0,,,""
000200801004,"","Steinsel, Laval",,"49.669554466350","6.119685140175",0,,,""
000200901015,"","Strassen, Huorgarten",,"49.617382663864","6.091941136651",0,,,""
000200901014,"","Strassen, Hondseck",,"49.618019025902","6.087555312889",0,,,""
000200901003,"","Strassen, Aurélia",,"49.619005650776","6.080655953455",0,,,""
000200405008,"","Luxembourg, Centre Hospitalier",,"49.618973258812","6.099753123593",0,,,""
000200419019,"","Limpertsberg, Henri VII",,"49.617913246196","6.119257022768",0,,,""
000200425008,"","Rollingergrund, Stand de Tir",,"49.624291696979","6.100531205215",0,,,""
000200419014,"","Limpertsberg, Ermesinde",,"49.619179701984","6.117008297628",0,,,""
000200425009,"","Rollingergrund, Steekaul",,"49.624164626647","6.097616694419",0,,,""
000200404016,"","Bonnevoie, Hippodrome",,"49.593313584066","6.139058919835",0,,,""
000200425002,"","Reckenthal, Gäertnerei",,"49.624702622172","6.092529903795",0,,,""
000200419004,"","Limpertsberg, Allée Scheffer",,"49.618203316690","6.124044776356",0,,,""
000200412016,"","Gasperich, Richard Wagner",,"49.589195301166","6.124271225400",0,,,""
000200405001,"","Gare, Al Avenue",,"49.603042893916","6.133049086980",0,,,""
000200419003,"","Limpertsberg, Alfred de Musset",,"49.618935342634","6.122007678992",0,,,""
000200404004,"","Bonnevoie, Baden-Powell",,"49.599994954484","6.150599235044",0,,,""
000200419028,"","Limpertsberg, N.S. Pierret",,"49.620702937963","6.118566216314",0,,,""
000200419008,"","Limpertsberg, Batty Weber",,"49.622376359193","6.116764137526",0,,,""
000200419012,"","Limpertsberg, Jean Soupert",,"49.622033462533","6.112034530551",0,,,""
000200419022,"","Limpertsberg, Lycée Michel Lucius",,"49.624396646502","6.114802946107",0,,,""
000200901004,"","Strassen, Barblé",,"49.620451387193","6.070585381052",0,,,""
000200901017,"","Strassen, Kesseler",,"49.621012395492","6.066452775750",0,,,""
000200426002,"","Weimershof, Joseph Hackin",,"49.630219566217","6.171355573015",0,,,""
000200405016,"","Centre, Forum Royal",,"49.613133227787","6.127098602905",0,,,""
000200417030,"","Kirchberg, Paul Noesen",,"49.627289023145","6.143258789937",0,,,""
000200419023,"","Limpertsberg, Léandre Lacroix",,"49.622180219708","6.114670821974",0,,,""
000200414005,"","Hamm, Montmédy",,"49.604035452263","6.148453269607",0,,,""
000200414002,"","Hamm, Englebert Neveu",,"49.605650934251","6.152678067165",0,,,""
000200414001,"","Hamm, Colonie",,"49.607082082252","6.155266473485",0,,,""
000200414008,"","Hamm, Schoul",,"49.609145379020","6.161985360346",0,,,""
000200414004,"","Hamm, Kierch",,"49.610187778850","6.167074953934",0,,,""
000200415004,"","Hollerich, Gare routière",,"49.595176494099","6.120957431152",0,,,""
000200412012,"","Gasperich, Lascombes",,"49.594249924129","6.125662285322",0,,,""
000200417005,"","Kirchberg, Antoine de St Exupéry",,"49.627205486677","6.151545611786",0,,,""
000200412007,"","Gasperich, Déportation",,"49.593794863125","6.127986480786",0,,,""
000200420002,"","Merl, Barrière",,"49.602256732785","6.097201965418",0,,,""
000200417016,"","Kirchberg, Jean Monnet",,"49.624798483877","6.145869607681",0,,,""
000200417007,"","Kirchberg, B.E.I.",,"49.620896047697","6.139395502309",0,,,""
000200404003,"","Bonnevoie, Anatole France",,"49.598716953035","6.149483410929",0,,,""
000200424001,"","Pulvermuhl, Hammer Dällchen",,"49.608823809453","6.150734906490",0,,,""
000200423004,"","Pfaffenthal, Um Bock",,"49.611658117288","6.135090871841",0,,,""
000200412003,"","Gasperich, Bei der Auer",,"49.591276589990","6.124757692520",0,,,""
000200412001,"","Gasperich, Al Gaasperech",,"49.592234436335","6.121310662246",0,,,""
000200414007,"","Hamm, Rue Haute",,"49.611018738802","6.169781861678",0,,,""
000200408007,"","Clausen, Ste Cunégonde",,"49.614330139137","6.141275472572",0,,,""
000200405020,"","Hamilius (Bus)",,"49.611503970823","6.125976085186",0,,,""
000200409009,"","Dommeldange, Jean Engling",,"49.638231482358","6.141551545338",0,,,""
000200404018,"","Bonnevoie, Izeger Knupp",,"49.595944997381","6.150171047347",0,,,""
000200406018,"","Cents, Trèves",,"49.617634779636","6.169564570943",0,,,""
000200406004,"","Cents, Carmel",,"49.618325667513","6.172432354809",0,,,""
000200406003,"","Cents, Camille Polfer",,"49.619365556348","6.176332408381",0,,,""
000200406019,"","Cents, Waassertuerm",,"49.620829691198","6.182880693317",0,,,""
000200405024,"","Luxembourg/Centre, Michel Rodange",,"49.603088558046","6.124740862021",0,,,""
000200417032,"","Kirchberg, Pierre Werner",,"49.631677929905","6.177656180110",0,,,""
000200801002,"","Steinsel, Bourgaass",,"49.677568660771","6.121790079762",0,,,""
000200405038,"","Luxembourg, Ste Zithe",,"49.606678201246","6.126190807681",0,,,""
000200422003,"","Neudorf/Weimershof, Fierschterhaus",,"49.623804698390","6.177598982145",0,,,""
000200422007,"","Neudorf, Kalchesbruck",,"49.622584850423","6.185133579073",0,,,""
000200417004,"","Kirchberg, Alphonse Weicker (Bus)",,"49.632298588362","6.169919253197",0,,,""
000200422005,"","Neudorf/Weimershof, Hierzekrëpp",,"49.617070507116","6.151707623388",0,,,""
000200407008,"","Cessange, Kierch",,"49.589126604546","6.106727869404",0,,,""
000200402006,"","Beggen, Kierch",,"49.643420194121","6.129471618551",0,,,""
000200407006,"","Cessange, Duerf",,"49.587128079268","6.103082201675",0,,,""
000200422009,"","Neudorf, Kierch",,"49.621241901742","6.161836185178",0,,,""
000200422001,"","Neiduerf, Brasserie",,"49.622451149658","6.164923233187",0,,,""
000200402007,"","Beggen, Rue du Pont",,"49.649007685344","6.127687952011",0,,,""
000200422008,"","Neiduerf, Kapell",,"49.623527073533","6.168447463057",0,,,""
000200422011,"","Neudorf, Laangegronn",,"49.624162106412","6.173077567112",0,,,""
000200405003,"","Centre, Alsace",,"49.596039230307","6.130332038155",0,,,""
000200419005,"","Limpertsberg, Arts et Métiers",,"49.621759629271","6.126687952648",0,,,""
000200404021,"","Bonnevoie, Jules Fischer",,"49.592282100852","6.146468067136",0,,,""
000200404028,"","Bonnevoie, Neufchâteau",,"49.590492040331","6.140649495689",0,,,""
000200416001,"","Findel, Cité Aéroport",,"49.625814889143","6.198117641833",0,,,""
000200404033,"","Bonnevoie, Pont-Remy",,"49.594543110753","6.144398430181",0,,,""
000200415008,"","Hollerich, Nancy",,"49.603408846307","6.118451277346",0,,,""
000200412011,"","Gasperich, Klensch",,"49.593159215766","6.119429339329",0,,,""
000200412002,"","Gasperich, Beethoven",,"49.589641332377","6.118335825416",0,,,""
000200415013,"","Hollerich, Schluechthaus",,"49.600321809340","6.117318374443",0,,,""
000200417001,"","Kirchberg, Prince Félix",,"49.625228606238","6.139972554567",0,,,""
000200403010,"","Belair, Kierch",,"49.610455175808","6.107721277367",0,,,""
000200404014,"","Bonnevoie, Gabriel Lippmann",,"49.599086803378","6.142596496567",0,,,""
000200404023,"","Bonnevoie, Kofferfabrick",,"49.600930043312","6.145104824469",0,,,""
000200304007,"","Howald, Op der Stirzel",,"49.576768250545","6.135392281642",0,,,""
000200419034,"","Limpertsberg, Square André",,"49.623659062235","6.119139554067",0,,,""
000200419010,"","Limpertsberg, Belle-Vue",,"49.623031664397","6.127554767037",0,,,""
000200404017,"","Bonnevoie, Huese Vic",,"49.603718835030","6.137093028501",0,,,""
000201004001,"","Walferdange, Gare",,"49.662029741329","6.136206553551",0,,,""
000200419030,"","Limpertsberg, Parking Glacis",,"49.616133075290","6.123640547475",0,,,""
000200404036,"","Bonnevoie, Virchow",,"49.601725329564","6.139424592934",0,,,""
000200419001,"","Limpertsberg, Alen Eecher Bierg",,"49.621855241254","6.129451906370",0,,,""
000200404013,"","Bonnevoie, Fraternité",,"49.599168023819","6.140058763442",0,,,""
000200409003,"","Dommeldange, Château",,"49.634695591326","6.138628220459",0,,,""
000200405039,"","Luxembourg, Wallis",,"49.603110684171","6.134332468021",0,,,""
000200304006,"","Howald, Moureschanz",,"49.583292630460","6.136559745577",0,,,""
000200304011,"","Howald, Ronneboesch",,"49.578819974073","6.133597964984",0,,,""
000200901018,"","Strassen, Kiem",,"49.618571367578","6.078064824031",0,,,""
000200406011,"","Cents, Kéibierg-I.N.S.",,"49.611157440460","6.143219475404",0,,,""
000200420001,"","Merl, Athénée",,"49.604964697093","6.111216445765",0,,,""
000200406007,"","Cents, Fort Dumoulin",,"49.612424348372","6.147894269863",0,,,""
000200901025,"","Strassen, Réimerwee",,"49.617811963679","6.082195089569",0,,,""
000200406017,"","Cents, Tawioun",,"49.613862912234","6.154068463043",0,,,""
000200406012,"","Cents, Kierch",,"49.615493382541","6.160744156927",0,,,""
000200901019,"","Strassen, Les Aubépines",,"49.616028719990","6.090332518937",0,,,""
000200408008,"","Clausen, Tour Jacob",,"49.611779558034","6.142546215221",0,,,""
000200408006,"","Clausen, Rumm",,"49.610778497180","6.139171288610",0,,,""
000200501004,"","Findel",,"49.629165106759","6.204587107641",0,,,""
000200403015,"","Belair, Rheinsheim",,"49.607453504998","6.120829165568",0,,,""
000200508001,"","Senningerberg, Autobunn",,"49.639222515116","6.216506075024",0,,,""
000200404020,"","Bonnevoie, Jeanne d'Arc",,"49.596711180313","6.147676555384",0,,,""
000200404029,"","Bonnevoie, Nic Martha",,"49.592998224342","6.148875877431",0,,,""
000200420004,"","Merl, Conservatoire",,"49.602261765961","6.105659369282",0,,,""
000200412004,"","Gasperich, Émile Bian",,"49.580253520396","6.117796106394",0,,,""
000200412008,"","Gasperich, François Hogenberg",,"49.587556610004","6.120963439946",0,,,""
000200420003,"","Merl, Celtes",,"49.601642823520","6.094608417836",0,,,""
000200403002,"","Belair, Archiducs",,"49.612673651826","6.112255771335",0,,,""
000200403001,"","Belair, Amsterdam",,"49.612203103622","6.108185415887",0,,,""
000200405018,"","Centre, Gruef",,"49.611087358268","6.131663142754",0,,,""
000200508003,"","Senningerberg, Charlys Statioun",,"49.649996348503","6.226089099821",0,,,""
000200423001,"","Pfaffenthal, Sichenhaff",,"49.620079090808","6.132561217299",0,,,""
000200404037,"","Bonnevoie, Willibrord",,"49.593853810682","6.140895685555",0,,,""
000200404027,"","Bonnevoie, Lycée Technique de Bonnevoie/Quais",,"49.591164812161","6.141661913530",0,,,""
000200406010,"","Cents, Jules Salentiny",,"49.616897304705","6.158931723237",0,,,""
000200406002,"","Cents, Arthur Knaff",,"49.618368133254","6.160577001155",0,,,""
000200406005,"","Cents, Charles de Tornaco",,"49.619244507509","6.163295457408",0,,,""
000200405007,"","Centre, Cathédrale",,"49.610003936497","6.131145298538",0,,,""
000200403017,"","Belair, Nicolas Simmer",,"49.614243946473","6.113533646907",0,,,""
000200425004,"","Rollingergrund, Beim Klomp",,"49.617997604691","6.111096260763",0,,,""
000200420011,"","Merl, Orval",,"49.605835909877","6.102526644813",0,,,""
000200420008,"","Merl, Laang Heck",,"49.605426492127","6.098038015299",0,,,""
000200420014,"","Merl, St.Hubert",,"49.603995511412","6.093001149356",0,,,""
000200420013,"","Merl, Plak",,"49.603037538801","6.089251429217",0,,,""
000200419029,"","Limpertsberg, Neumans-Park",,"49.620897786763","6.107628911943",0,,,""
000200901013,"","Strassen, Grande-Duchesse Charlotte",,"49.619124496246","6.072188189911",0,,,""
000200901008,"","Strassen, Chapelle",,"49.618647539844","6.064019300852",0,,,""
000200901026,"","Strassen, Riedgen",,"49.618155516980","6.057402333645",0,,,""
000200425011,"","Rollingergrund, Val St André",,"49.621976066435","6.105778640720",0,,,""
000200425012,"","Rollingergrund, Villeroy & Boch",,"49.628176908817","6.106948296201",0,,,""
000200421004,"","Muhlenbach, Peiffeschbierg",,"49.628388005802","6.113237440738",0,,,""
000200420010,"","Merl, Op der Millen",,"49.603451337830","6.084963204030",0,,,""
000200426006,"","Weimerskirch, Knupp",,"49.628818131702","6.135607272091",0,,,""
000200415011,"","Hollerich, Poincaré",,"49.602274332207","6.116607946529",0,,,""
000200426011,"","Weimerskirch, Tommys Bruch",,"49.631586827471","6.138062552179",0,,,""
000200408003,"","Clausen, Malakoff",,"49.615171947316","6.146584585828",0,,,""
000200426004,"","Weimerskirch, Biechelchen",,"49.633567379661","6.141755488050",0,,,""
000200408005,"","Clausen, Plateau Altmunster",,"49.612747733164","6.139858962997",0,,,""
000200406013,"","Cents, Nic Rollinger",,"49.611590345125","6.151653419369",0,,,""
000200408001,"","Clausen, Clausener Bréck",,"49.613483369722","6.143415710316",0,,,""
000200417022,"","Kirchberg, Léon Thyes",,"49.637288508486","6.165017071029",0,,,""
000200417025,"","Kirchberg, Mathias Tresch",,"49.637561153793","6.169170770073",0,,,""
000200406015,"","Cents, Pommiers",,"49.612782904883","6.157343502324",0,,,""
000200423002,"","Pfaffenthal, Stade G. Diderich",,"49.621709746314","6.131565335354",0,,,""
000200406009,"","Cents-Hamm, Halte CFL 3-4",,"49.614884049643","6.165611787819",0,,,""
000200403019,"","Belair, Val Ste Croix",,"49.612297533641","6.097588216221",0,,,""
000200403003,"","Belair, Aubépines",,"49.615499406274","6.098270219049",0,,,""
000200420009,"","Merl, Marcel Cahen",,"49.601826564881","6.101214099645",0,,,""
000200419007,"","Limpertsberg, Avenir",,"49.625448705203","6.120197249432",0,,,""
000200422010,"","Neiduerf, Kierfecht",,"49.626378390281","6.174680359805",0,,,""
000200422004,"","Neudorf/Weimershof, Grunewald",,"49.628419289221","6.177207518031",0,,,""
000200304008,"","Howald, P&R Howald Quai 4",,"49.579056740640","6.127911424236",0,,,""
000200405022,"","Centre, Kasinosgaass",,"49.612370266929","6.131518570307",0,,,""
000200403008,"","Belair, Guillaume",,"49.606638666312","6.118454563752",0,,,""
000200404025,"","Verlorenkost, Lavoisier",,"49.605216331610","6.140895196158",0,,,""
000200419013,"","Limpertsberg, Crispinus",,"49.619346702405","6.130236360307",0,,,""
000200410005,"","Eich, Octroi",,"49.622551636520","6.130324934360",0,,,""
000200419018,"","Limpertsberg, Guillaume Schneider",,"49.620545507832","6.124169915642",0,,,""
000200419025,"","Limpertsberg, Lycée de Garçons",,"49.620062301874","6.122827484217",0,,,""
000200419002,"","Limpertsberg, Alen Tramsschapp",,"49.621977343334","6.120609738486",0,,,""
000200419011,"","Limpertsberg, Bois",,"49.622612140189","6.122981873413",0,,,""
000200419035,"","Limpertsberg, Waassertuerm",,"49.623954858204","6.122348802329",0,,,""
000200403007,"","Belair, Franciscaines",,"49.608274274731","6.112972729893",0,,,""
000200420012,"","Merl, Parc",,"49.607456172331","6.110113875600",0,,,""
000200403013,"","Belair, Place de France",,"49.606483206009","6.106821291865",0,,,""
000200403021,"","Belair, Wandmillen",,"49.615843178744","6.102652898621",0,,,""
000200409011,"","Dommeldange, Van der Meulen",,"49.636296368142","6.143701143713",0,,,""
000200409008,"","Dommeldange, Gare routière",,"49.633332941414","6.137004425568",0,,,""
000200403004,"","Belair, Bragance",,"49.607298129357","6.114954712650",0,,,""
000200417013,"","Kirchberg, Coudenhove-Kalergi",,"49.627906631274","6.159205056990",0,,,""
000200412020,"","Gasperich, Millewee",,"49.592061936537","6.127036518524",0,,,""
000200404006,"","Bonnevoie, Chalop",,"49.600279066257","6.149350751567",0,,,""
000200422006,"","Neudorf, Huesegrënnchen",,"49.622903044973","6.164273825352",0,,,""
000200422002,"","Neudorf, Carrières",,"49.625350984754","6.165779638794",0,,,""
000200417020,"","Kirchberg, Labours",,"49.629160673828","6.167788264899",0,,,""
000200426005,"","Weimerskirch, Duerf",,"49.628370594047","6.136062877366",0,,,""
000200426008,"","Weimerskirch, Mäertesbuer",,"49.627954186052","6.139231172870",0,,,""
000200426009,"","Weimerskirch, Pierre-Eloi Schoué",,"49.626457993256","6.136936798086",0,,,""
000200426010,"","Weimerskirch, St.Vith",,"49.626153832223","6.138824267075",0,,,""
000200417018,"","Kirchberg, Kierch",,"49.627609514196","6.146037633414",0,,,""
000200413001,"","Grund, Stadgronn-Bréck",,"49.608390553574","6.135379437135",0,,,""
000200404034,"","Bonnevoie, Rotonde",,"49.599513560434","6.137297912962",0,,,""
000200404026,"","Bonnevoie, Léon XIII",,"49.596990148696","6.137847131223",0,,,""
000200423003,"","Pfaffenthal, Théiwesbuer",,"49.615839280284","6.132824034361",0,,,""
000200403020,"","Belair, Wampach",,"49.609888974044","6.121087091990",0,,,""
000200423005,"","Pfaffenthal, Vauban",,"49.613960184658","6.135412730921",0,,,""
000200304003,"","Howald, C.I.P.A.",,"49.589169906326","6.147950588312",0,,,""
000200409010,"","Dommeldange, Parc de l'Europe",,"49.638810837122","6.144246585281",0,,,""
000200406016,"","Cents, Robert Bruch",,"49.616912645269","6.166158669142",0,,,""
000200426001,"","Weimershof, Bleuets",,"49.620535165242","6.153942666576",0,,,""
000200406008,"","Cents, Gabriel de Marie",,"49.619016346733","6.165731942535",0,,,""
000200426003,"","Weimershof, Pâquerettes",,"49.622573413978","6.158906082845",0,,,""
000200304005,"","Howald, Minsbësch",,"49.580322989692","6.145990013523",0,,,""
000200304013,"","Howald, Waassertuerm",,"49.578186806558","6.147650436141",0,,,""
000200417024,"","Kirchberg, Marguerites",,"49.623680670000","6.160766567564",0,,,""
000200417026,"","Kirchberg, Muguets",,"49.626544627259","6.163826848937",0,,,""
000200417021,"","Kirchberg, Léon Hengen",,"49.623860976547","6.149441921092",0,,,""
000200421006,"","Muhlenbach, Siwemuergen",,"49.629192870212","6.117012441341",0,,,""
000200421003,"","Muhlenbach, Eecher Schmelz",,"49.627992479733","6.122276966601",0,,,""
000200415012,"","Hollerich, Salzhaff",,"49.600029466862","6.117861608372",0,,,""
000200407011,"","Cessange, Rue Verte",,"49.589671964988","6.115234129575",0,,,""
000200407009,"","Cessange, Kuelebierg",,"49.588241036532","6.111250092777",0,,,""
000200403014,"","Belair, Place de Liège",,"49.608594272419","6.107776094890",0,,,""
000200407012,"","Cessange, Tubishaff",,"49.585850149229","6.107018662570",0,,,""
000200407010,"","Cessange, Rue de Leudelange",,"49.582008294500","6.097311289367",0,,,""
000200412009,"","Gasperich, Gaasperecher Bierg",,"49.592774179603","6.116974732932",0,,,""
000200412006,"","Gasperich, Cloche d'Or",,"49.583476276220","6.115350674708",0,,,""
000200415001,"","Hollerich, Alphonse Munchen",,"49.604514718207","6.114814551880",0,,,""
000200426007,"","Weimerskirch, Laval's Park",,"49.628280418339","6.132785785507",0,,,""
000200414006,"","Hamm, Rue de Bitbourg",,"49.613186848850","6.169780827002",0,,,""
000200403016,"","Belair, Rue de l'Ouest",,"49.615204645630","6.094770830847",0,,,""
000200101010,"","Bertrange, Kierfecht",,"49.611927954736","6.058386774969",0,,,""
000200405012,"","Centre, Etats-Unis",,"49.600302427498","6.126662731881",0,,,""
000200101012,"","Bertrange, Montereale",,"49.609839307616","6.063995045339",0,,,""
000200101014,"","Bertrange, Richterwee",,"49.607313491045","6.070113590611",0,,,""
000200101006,"","Bertrange, Fleuri",,"49.605159031066","6.075987772134",0,,,""
000200101004,"","Bertrange, Dicks",,"49.604736258794","6.052244355410",0,,,""
000200101008,"","Bertrange, Gemeng",,"49.610579075458","6.050285714781",0,,,""
000200303002,"","Hesperange, Cité Um Schlass",,"49.572921366324","6.143904179449",0,,,""
000200404035,"","Bonnevoie, Vannérus",,"49.597432991695","6.140838519693",0,,,""
000200102001,"","Helfent, Automobile Club",,"49.601290381928","6.069229018774",0,,,""
000200102002,"","Helfent, City Concorde",,"49.600697059988","6.066053262771",0,,,""
000200404038,"","Bonnevoie, Wisestrooss",,"49.597909082421","6.144450866088",0,,,""
000200404019,"","Bonnevoie, Jean Jacoby",,"49.598383719605","6.146914545788",0,,,""
000200101011,"","Bertrange, Millewee",,"49.617864532064","6.048100893624",0,,,""
000200101019,"","Bertrange, Waassertuerm",,"49.620777749125","6.048035536105",0,,,""
000200101002,"","Bertrange, Belle Etoile",,"49.621820476446","6.048706432622",0,,,""
000200412017,"","Gasperich, Ruppert",,"49.583614573729","6.113682064601",0,,,""
000200412010,"","Gasperich, Guillaume Kroll",,"49.581869465822","6.112249229362",0,,,""
000200304004,"","Howald, Jhangeli",,"49.586097240820","6.143743302494",0,,,""
000200418001,"","Kockelscheuer, Camping",,"49.573841501899","6.113207501550",0,,,""
000200418003,"","Kockelscheuer, Patinoire",,"49.565248459468","6.108472336274",0,,,""
000200415009,"","Hollerich, P+R Bouillon",,"49.600100284225","6.106285719298",0,,,""
000200405025,"","Luxembourg/Centre, Monterey",,"49.610454447573","6.125013338233",0,,,""
000200414003,"","Hamm, Käschtewee",,"49.612728152234","6.172728752132",0,,,""
000200404007,"","Bonnevoie, Demy Schlechter",,"49.594995346382","6.143403186654",0,,,""
000200410002,"","Eich, Ecole Eich",,"49.626949025264","6.127712033865",0,,,""
000200417008,"","Kirchberg, Bricher Gässel",,"49.626947510800","6.166684090628",0,,,""
000200417036,"","Kirchberg, Réimerwee",,"49.632364781590","6.167477672070",0,,,""
000200901024,"","Strassen, Primeurs",,"49.619924484965","6.093922246487",0,,,""
000200415006,"","Hollerich, Jean-Baptiste Merkels",,"49.599405371296","6.122424608363",0,,,""
000200405032,"","Luxembourg, Gare Centrale Quai 2",,"49.599675220658","6.132928338939",0,,,""
000200403006,"","Belair, Crécy",,"49.608865935913","6.116855678909",0,,,""
000160301007,"","Colmar, Usines",,"49.804814509858","6.091978621396",0,,,""
000160301002,"","Colmar, Centre",,"49.811916858908","6.097169229562",0,,,""
000161001004,"","Cruchten, Neistrooss",,"49.798992523827","6.130145422559",0,,,""
000141001004,"","Medernach, Op der Lann",,"49.809404475655","6.216899381351",0,,,""
000500000083,"","Trier, Theodor-Heuss-Allee",,"49.759389910185","6.646137697937",0,,,""
000141001003,"","Medernach, Op der Gare",,"49.805500306587","6.213912455644",0,,,""
000160601001,"","Larochette, Bleech",,"49.784253690419","6.220370131882",0,,,""
000500000078,"","Trier, Christophstr.",,"49.759040796475","6.645779683621",0,,,""
000170804002,"","Waldbillig, Gemeng",,"49.796531555503","6.283984532607",0,,,""
000170101002,"","Beaufort, Ennescht Heed",,"49.844915540586","6.277613992025",0,,,""
000170301002,"","Berdorf, Hotel Herber",,"49.823488040870","6.352556371080",0,,,""
000170501013,"","Echternach, Remparts",,"49.810589311846","6.418374147995",0,,,""
000170501015,"","Echternach, Ste Croix",,"49.808779918607","6.430049731776",0,,,""
000170101003,"","Beaufort, Härewiss",,"49.833569165522","6.292479423106",0,,,""
000180305001,"","Niederdonven, Beim Festsall",,"49.636029656207","6.404626528290",0,,,""
000200504006,"","Niederanven, Routscheed",,"49.650494276894","6.252234445836",0,,,""
000210701006,"","Remich, Gare routière",,"49.542736963958","6.368293326193",0,,,""
000210701008,"","Remich, Maatebierg",,"49.548800576521","6.375820969530",0,,,""
000210803005,"","Stadtbredimus, Vinsmoselle",,"49.564311387662","6.368751326508",0,,,""
000500000093,"","Schweich, P&R",,"49.817096028026","6.758104141571",0,,,""
000500000074,"","Sirzenich, P&R B51",,"49.773597420834","6.594208035268",0,,,""
000170601004,"","Born, Pëtzwee",,"49.760405294352","6.513096830378",0,,,""
000200405005,"","Centre, Badanstalt",,"49.613535410547","6.129165620328",0,,,""
000210801001,"","Greiveldange, Kellerei",,"49.587159987212","6.363536554206",0,,,""
000210801003,"","Greiveldange, Neie Wee",,"49.587032321179","6.361094185609",0,,,""
000210402001,"","Lenningen, Am Aker",,"49.600385407030","6.366740172018",0,,,""
000180803003,"","Machtum, Gellebur",,"49.659845743020","6.431796124717",0,,,""
000180803004,"","Machtum, Ongkaf",,"49.659511758687","6.437426220371",0,,,""
000500000050,"","Nittel, Bahnhof",,"49.653914524279","6.441821813200",0,,,""
000500000018,"","Saarburg, Heckingplatz",,"49.606618641152","6.544618748837",0,,,""
000500000090,"","Wincheringen, Wincheringen Ort",,"49.608831559536","6.427861735271",0,,,""
000500000005,"","Bilzingen Ort, Wincheringen",,"49.598266586777","6.451683943189",0,,,""
000200405037,"","Luxembourg, rue Heine",,"49.605222858105","6.130623183810",0,,,""
000200405014,"","Centre, Fondation Pescatore",,"49.615706637399","6.126753360525",0,,,""
000200504001,"","Niederanven, Geisfeld",,"49.652950561765","6.262114307803",0,,,""
000180101001,"","Banzelt",,"49.672963324032","6.329316611656",0,,,""
000180102002,"","Berg, Haff Biel",,"49.679283460208","6.351055325214",0,,,""
000180102001,"","Berg, Bei der Schmett",,"49.681852273932","6.358749136854",0,,,""
000180803001,"","Machtum, Bei Kallek's",,"49.659793047487","6.436316647438",0,,,""
000140701016,"","Ettelbruck, Gare",,"49.847862877724","6.106757467309",0,,,""
000140603001,"","Ingeldorf, Bei der Bréck",,"49.851444756849","6.133953150213",0,,,""
000140401004,"","Diekirch, Gare routière",,"49.864487629247","6.152859922620",0,,,""
000140401007,"","Diekirch, rue Merten",,"49.864813639919","6.167259080843",0,,,""
000140401009,"","Diekirch, Neie Kolleisch",,"49.864792847528","6.168248425263",0,,,""
000140401001,"","Diekirch, Altersheem",,"49.866718884042","6.159464917996",0,,,""
000140401006,"","Diekirch, Kluuster",,"49.869545883081","6.158088066434",0,,,""
000140401005,"","Diekirch, An der Kléck",,"49.868736484713","6.172067944925",0,,,""
000140203002,"","Gilsdorf, Bei der Schoul",,"49.865264088928","6.179452208171",0,,,""
000140203001,"","Gilsdorf, An der Kléck",,"49.869680212925","6.181630606135",0,,,""
000130207002,"","Tandel, Veianerstrooss",,"49.896985732615","6.182100339165",0,,,""
000130201003,"","Bastendorf, Lann",,"49.890598250508","6.164022310287",0,,,""
000140201002,"","Bettendorf, Gemeng",,"49.876111935039","6.217337876965",0,,,""
000140201003,"","Bettendorf, Schlass",,"49.876588672529","6.221458792782",0,,,""
000140204002,"","Moestroff, Bréck",,"49.868627153945","6.239898290422",0,,,""
000130204001,"","Fouhren, Halt",,"49.912347660099","6.193826058603",0,,,""
000130202002,"","Bettel, Schmedd",,"49.917047921203","6.225764476574",0,,,""
000141203002,"","Reisdorf, Bei der Gare",,"49.867985808206","6.263679042195",0,,,""
000170101009,"","Beaufort, Um Bierg",,"49.843313231593","6.288693634852",0,,,""
000170101006,"","Beaufort, Op der Gare",,"49.837107221762","6.290668276588",0,,,""
000170301004,"","Berdorf, Duerfplaz",,"49.821887502784","6.349835043414",0,,,""
000141204001,"","Wallendorf, Bei der Bréck",,"49.873363859444","6.290406695298",0,,,""
000170102001,"","Dillingen Déiljen",,"49.852429575340","6.319766838880",0,,,""
000170303002,"","Grundhof, Bei der Ernz",,"49.835104581302","6.329946499391",0,,,""
000170302001,"","Bollendorf, Gare",,"49.849592998091","6.354079206347",0,,,""
000130301010,"","Vianden, Place Engelmann",,"49.934512151600","6.201569517308",0,,,""
000130301006,"","Vianden, Gare",,"49.933483828932","6.212653298513",0,,,""
000130301012,"","Vianden, Ruoderwee",,"49.931933847670","6.220407872533",0,,,""
000130101002,"","Bivels, Kierch",,"49.959518142602","6.192895934707",0,,,""
000130101003,"","Bivels, Loch",,"49.956599505887","6.190876585608",0,,,""
000130106003,"","Stolzembourg, Kiirch",,"49.966029454830","6.166939114536",0,,,""
000130106001,"","Stolzembourg, Akescht",,"49.977132471061","6.165547369949",0,,,""
000110406001,"","Obereisenbach, Bei der Baach",,"50.004746851021","6.147075544042",0,,,""
000180401006,"","Grevenmacher, Schoul",,"49.682123628591","6.442933758334",0,,,""
000180701006,"","Mertert, route Nationale",,"49.703854117503","6.478022748958",0,,,""
000180701003,"","Mertert, Eglise",,"49.700836786390","6.480744926357",0,,,""
000180701002,"","Mertert, Copal",,"49.707137204170","6.486688837248",0,,,""
000180703001,"","Wasserbillig, Centre",,"49.715493099445","6.500755571668",0,,,""
000170605001,"","Moersdorf, Duerf",,"49.745059999867","6.501054597488",0,,,""
000170703001,"","Hinkel, Haaptstrooss",,"49.782955172118","6.514651182871",0,,,""
000170704003,"","Rosport, Lokal",,"49.804470142382","6.503639001975",0,,,""
000170705003,"","Steinheim, Spillschoul",,"49.819523985432","6.475181891525",0,,,""
000170705001,"","Steinheim, An der Uecht",,"49.818957173720","6.476003905645",0,,,""
000170501009,"","Echternach, Lycée",,"49.813264753322","6.424195689555",0,,,""
000170501006,"","Echternach, Charly's Halt",,"49.810504453577","6.415779138884",0,,,""
000170501003,"","Echternach, Belle Vue",,"49.810750771191","6.415932830581",0,,,""
000200409005,"","Dommeldange, Contournement",,"49.633038954468","6.139667225028",0,,,""
000200410003,"","Eich, Eecher Plaz",,"49.627561941093","6.129933439802",0,,,""
000180508001,"","Gonderange, Am Duerf",,"49.692933440806","6.243697311625",0,,,""
000180508003,"","Gonderange, Mierchen",,"49.699683395059","6.246838159022",0,,,""
000180508004,"","Gonderange, Op der Breck",,"49.693567507429","6.242746131879",0,,,""
000180511002,"","Junglinster, Op der Gare",,"49.711447038220","6.252374081205",0,,,""
000180511005,"","Junglinster, Um Lei",,"49.708178169982","6.249964496473",0,,,""
000180511007,"","Junglinster, Um Reiland",,"49.715219661580","6.260860226720",0,,,""
000180509002,"","Graulinster, Haaptstrooss",,"49.739057183033","6.287890381663",0,,,""
000180509001,"","Graulinster, Am Duerf",,"49.740706948492","6.287270861413",0,,,""
000170404001,"","Wolpert",,"49.762826457307","6.352085992809",0,,,""
000180801002,"","Ahn, Op der Breck",,"49.627791567271","6.421226375192",0,,,""
000200403009,"","Belair, Kannerklinick/Maternité",,"49.617937223975","6.097543778968",0,,,""
000200404001,"","Verlorenkost, Al Molkerei",,"49.605530408455","6.136862271760",0,,,""
000200405013,"","Centre, F.D. Roosevelt",,"49.609285334454","6.130827553783",0,,,""
000200419021,"","Limpertsberg, L.T.C.",,"49.624783598806","6.115167841318",0,,,""
000200204004,"","Oetrange, Prisong",,"49.607583267793","6.241705145429",0,,,""
000200601001,"","Sandweiler, Am Eck",,"49.613209070027","6.212187779316",0,,,""
000200601002,"","Sandweiler, Apdikt",,"49.615255980003","6.222856855590",0,,,""
000200601008,"","Sandweiler, Rue d'Oetrange",,"49.613516436366","6.226846317221",0,,,""
000200601005,"","Sandweiler, Kiirch",,"49.616309592665","6.219155400122",0,,,""
000210801002,"","Greiveldange, Gemengebréck",,"49.586549301207","6.358850914843",0,,,""
000180801001,"","Ahn, Alphonse Steinès",,"49.627419789262","6.423517239582",0,,,""
000180804002,"","Wormeldange, Geméen",,"49.608904827766","6.404157469068",0,,,""
000180802004,"","Ehnen, Lehboesch",,"49.604781334951","6.389620386084",0,,,""
000180802003,"","Ehnen, Ieselsbreck",,"49.600829964526","6.387935195500",0,,,""
000210402002,"","Lenningen, Basilika",,"49.600953640142","6.367595408294",0,,,""
000210801005,"","Greiveldange, Schoul",,"49.586510814813","6.357953559815",0,,,""
000210401006,"","Canach, Weber",,"49.608914376337","6.322090958690",0,,,""
000170501012,"","Echternach, Nonnenmillen/Lac",,"49.805829601937","6.405853467706",0,,,""
000500000079,"","Trier, Hauptbahnhof",,"49.756971931514","6.651989507483",0,,,""
000180303001,"","Flaxweiler, Bei Knuppeneck",,"49.665329973171","6.343968885957",0,,,""
000180303002,"","Flaxweiler, Op der Bréck",,"49.666403334122","6.342524390909",0,,,""
000180401002,"","Grevenmacher, Enner der Bréck",,"49.676758200063","6.443575723010",0,,,""
000180305002,"","Niederdonven, Beim Schmatt",,"49.635590994318","6.409137673009",0,,,""
000180305003,"","Niederdonven, Bei der Kappell",,"49.634175784919","6.402592072619",0,,,""
000180305004,"","Niederdonven, Op der Bréck",,"49.638452956582","6.405578115288",0,,,""
000180306001,"","Oberdonven",,"49.649761499474","6.399586997082",0,,,""
000210602003,"","Schengen, Schoul",,"49.469563949759","6.361712915467",0,,,""
000500000089,"","Wincheringen, Moselbrücke",,"49.606862985986","6.404971960937",0,,,""
000500000035,"","Merzkirchen, Abzw.",,"49.579158228335","6.477098882310",0,,,""
000500000021,"","Saarburg, Kahren",,"49.596180556674","6.507055747601",0,,,""
000200203003,"","Moutfort, Kapell",,"49.587905229472","6.258604859784",0,,,""
000500000033,"","Merzig, Bahnhof",,"49.436936380254","6.634440191300",0,,,""
000500000034,"","Merzig, Stadthalle",,"49.441667302800","6.633950366691",0,,,""
000500000061,"","Perl, Bahnhofstrasse",,"49.473387022821","6.376320715965",0,,,""
000500000059,"","Besch, Ortsmitte B419",,"49.504619768969","6.372646784627",0,,,""
000500000045,"","Nennig, Sparkasse",,"49.534110753436","6.379040852433",0,,,""
000500000046,"","Nennig, Zoll",,"49.541690365108","6.373699750903",0,,,""
000500000054,"","Oberleuken, Ortsmitte",,"49.507319250084","6.471113245204",0,,,""
000500000080,"","Trier, Nordallee",,"49.761625616059","6.638419427967",0,,,""
000170501005,"","Echternach, Centre Ville",,"49.811809730825","6.419045971841",0,,,""
000500000082,"","Trier, Pacelliufer",,"49.744846629618","6.628198270728",0,,,""
000500000027,"","Konz, Konz Mitte",,"49.700047100717","6.573475140167",0,,,""
000500000043,"","Nennig, Bahnhof",,"49.539295984162","6.376413260850",0,,,""
000500000044,"","Nennig, Römische Villa",,"49.529043817181","6.383320080245",0,,,""
000500000067,"","Besch, Chemiewerk",,"49.518300782483","6.376901756351",0,,,""
000500000063,"","Perl, Maimühle",,"49.473987855815","6.371484238046",0,,,""
000500000072,"","Saarburg, Bahnhof-Brückenstr.",,"49.606983898435","6.555494774108",0,,,""
000500000066,"","Sinz, Ortsmitte",,"49.532307796791","6.431799267732",0,,,""
000500000058,"","Orscholz, Rehaklinik",,"49.507869917638","6.538736738288",0,,,""
000220201001,"","Differdange, Aal Gare",,"49.527860139406","5.890834757631",0,,,""
000220301010,"","Dudelange, Rue Jean Simon",,"49.489691849198","6.083277653659",0,,,""
000220301018,"","Dudelange, Dennewald",,"49.491981625576","6.088099717022",0,,,""
000220301011,"","Dudelange, Rue Curie",,"49.491698956164","6.099041109791",0,,,""
000220301007,"","Dudelange, Am Boujel",,"49.490312359973","6.097921585289",0,,,""
000220301003,"","Dudelange, Rue de Hellange",,"49.493109346797","6.093944100606",0,,,""
000220301005,"","Dudelange, Biereng",,"49.492793732981","6.089266908497",0,,,""
000220301006,"","Dudelange, Birenger Barrière",,"49.493158454197","6.085889053040",0,,,""
000220301045,"","Dudelange, Rue des Mouleurs",,"49.495173176762","6.077316303834",0,,,""
000220301044,"","Dudelange, Rue des Lamineurs",,"49.496037876459","6.081629483220",0,,,""
000220301054,"","Dudelange, Soibelkaul",,"49.495199609716","6.085132405005",0,,,""
000220301026,"","Dudelange, Rue Ribeschpont",,"49.493044915414","6.084597515142",0,,,""
000220301042,"","Dudelange, Route de Luxembourg",,"49.489045625466","6.082625559891",0,,,""
000220301037,"","Dudelange, Nudelsfabrik",,"49.485536829748","6.081908999328",0,,,""
000220301053,"","Dudelange, Skatepark P&R",,"49.470554336563","6.079652256058",0,,,""
000220301008,"","Dudelange, Boulodrome P&R",,"49.471692807199","6.078065908678",0,,,""
000220301023,"","Dudelange (Usines), Gare routière",,"49.473061811636","6.078481417474",0,,,""
000220301039,"","Dudelange, Porte d'Italie",,"49.475052966751","6.080019659372",0,,,""
000220301055,"","Dudelange, Rue Tattenberg",,"49.478329736362","6.079741828413",0,,,""
000220301020,"","Dudelange, Rue Gaffelt",,"49.481723083954","6.080161237279",0,,,""
000220301017,"","Dudelange, Jugendhaus",,"49.482856798057","6.086583838931",0,,,""
000220301040,"","Dudelange, Pullewee",,"49.486275890333","6.091241770307",0,,,""
000220301016,"","Dudelange, Centre Sportif",,"49.485758381579","6.088911036010",0,,,""
000220301057,"","Dudelange, Waldschoul",,"49.483587783463","6.102420607893",0,,,""
000220301004,"","Dudelange, Rue Belair",,"49.478514837840","6.093151640242",0,,,""
000220301033,"","Dudelange, Rue Antoine Zinnen",,"49.478515271617","6.087808139746",0,,,""
000220402102,"","Esch/Alzette, Rue de l'Eglise",,"49.497329427223","5.982666456821",0,,,""
000220402053,"","Esch/Alzette, Lallenger Schoul",,"49.510434534692","5.990481301865",0,,,""
000220402012,"","Esch/Alzette, Bd. Hubert Clement",,"49.510297240272","5.985902624073",0,,,""
000220402098,"","Esch/Alzette, Schluechthaus",,"49.509976759413","5.976043524524",0,,,""
000220402005,"","Esch/Alzette, Av. de la Paix",,"49.508466546214","5.983666469263",0,,,""
000220402013,"","Esch/Alzette, Bd. Pierre Dupong",,"49.510511673010","5.994483391752",0,,,""
000220402076,"","Esch/Alzette, Bd Aloyse Meyer",,"49.507863738974","5.992297058271",0,,,""
000220402052,"","Esch/Alzette, Lallenger Kiirch",,"49.507108179910","5.989884228215",0,,,""
000220402002,"","Esch/Alzette, Villa Mousset",,"49.505318519656","5.987493577406",0,,,""
000220402035,"","Esch/Alzette, Place de la Paix",,"49.504593369615","5.984181099016",0,,,""
000220402092,"","Esch/Alzette, Rue Henri Dunant",,"49.503254830090","5.981155156152",0,,,""
000220402044,"","Esch/Alzette, Rue de l'Hôpital",,"49.501601647276","5.980207079015",0,,,""
000220402027,"","Esch/Alzette, Dellhéicht",,"49.500551210338","5.982357671679",0,,,""
000220402026,"","Esch/Alzette, Bibliothèque mun.",,"49.499186001130","5.984859052856",0,,,""
000220201041,"","Differdange, Roudenhaff",,"49.529936531035","5.845932237472",0,,,""
000220201025,"","Differdange, Grillplaz",,"49.513848720349","5.869048843154",0,,,""
000220201036,"","Differdange, Place de France",,"49.521329941209","5.882874361355",0,,,""
000220201044,"","Differdange, Rue de Hussigny",,"49.517619544320","5.880070275118",0,,,""
000220201004,"","Differdange, Beckleck",,"49.512525306374","5.872007431619",0,,,""
000220201012,"","Differdange, Douane",,"49.510590946074","5.872006546599",0,,,""
000220202002,"","Lasauvage, Kierch",,"49.521978663199","5.836217707246",0,,,""
000220202003,"","Lasauvage, Schoul",,"49.523804969775","5.835229043281",0,,,""
000220202001,"","Lasauvage, Kajibi",,"49.526243718711","5.838208924693",0,,,""
000220402065,"","Esch/Alzette, Nossbierg",,"49.491803043801","5.995353843011",0,,,""
000221201011,"","Rumelange, Rembour",,"49.463243701196","6.016399134335",0,,,""
000221201002,"","Rumelange, Aale Kierfecht",,"49.462348823767","6.024611096766",0,,,""
000220601012,"","Kayl, Cité Berens",,"49.481288677379","6.042904772369",0,,,""
000220301030,"","Dudelange, Kierfecht",,"49.483373273723","6.080311586242",0,,,""
000220301031,"","Dudelange, rue Aloyse Kayser",,"49.484726853756","6.075135433048",0,,,""
000220301019,"","Dudelange, Route de Kayl",,"49.486510795027","6.072750465666",0,,,""
000220301002,"","Dudelange, Rue Angeldall",,"49.488877779506","6.069943807015",0,,,""
000220301013,"","Dudelange, Butschebuerg",,"49.491321329321","6.068030012874",0,,,""
000220301048,"","Dudelange, Scherr",,"49.488096021979","6.062892074633",0,,,""
000220601013,"","Kayl, Diddelengerstrooss",,"49.485056758694","6.050590402693",0,,,""
000220601014,"","Kayl, Eecherwee",,"49.482534663044","6.043078228400",0,,,""
000220602004,"","Tétange, Kierfecht",,"49.479568198323","6.043174156585",0,,,""
000220602008,"","Tétange, Um Haff",,"49.471924594664","6.038747471644",0,,,""
000221201012,"","Rumelange, Schmelz",,"49.461922951344","6.034643988539",0,,,""
000221201009,"","Rumelange, Maartplaz",,"49.460822658421","6.030335031880",0,,,""
000221201004,"","Rumelange, Centre Culturel",,"49.462160793777","6.026044195701",0,,,""
000221201007,"","Rumelange, Laangegronn",,"49.462008445691","6.021526070294",0,,,""
000221201006,"","Rumelange, Intermoselle",,"49.464207131920","6.014339067863",0,,,""
000220601004,"","Kayl, Arbed'shaff",,"49.476267531238","6.006522369594",0,,,""
000220601017,"","Kayl, Police",,"49.487460535998","6.036235340754",0,,,""
000220601021,"","Kayl, Brill",,"49.485451501860","6.044559551934",0,,,""
000220601010,"","Kayl, Bréck",,"49.487219980504","6.034924116363",0,,,""
000220601005,"","Kayl, Barrière",,"49.492803106195","6.036879300282",0,,,""
000220601011,"","Kayl, Broucherbierg",,"49.495648817745","6.035933859435",0,,,""
000221401008,"","Schifflange, Poto",,"49.507464776836","6.027303015730",0,,,""
000221401003,"","Schifflange, Stadhaus",,"49.505651661344","6.011069564815",0,,,""
000220402054,"","Esch/Alzette, Leesberg",,"49.499885885175","5.993421916992",0,,,""
000220901007,"","Lamadelaine, Route de Luxembourg",,"49.552574144027","5.854568385885",0,,,""
000190101003,"","Bascharage, Bomecht",,"49.558679824073","5.888696796804",0,,,""
000221304001,"","Soleuvre, Aessen",,"49.532457910032","5.942116449153",0,,,""
000221302002,"","Ehlerange, Dennebësch",,"49.529180196295","5.950863100625",0,,,""
000221302007,"","Ehlerange, Rousebësch",,"49.527936537267","5.957270835702",0,,,""
000221302001,"","Ehlerange, Centre",,"49.522421873542","5.964813624054",0,,,""
000220201039,"","Differdange, Profi",,"49.520967585915","5.904207543969",0,,,""
000221304004,"","Soleuvre, Cité Kauffmann",,"49.521509877997","5.916417719743",0,,,""
000221304007,"","Soleuvre, Déifferdengerstrooss",,"49.522552486249","5.920429049058",0,,,""
000221301011,"","Belvaux, Boulodrome",,"49.513531052600","5.946973144304",0,,,""
000220203003,"","Niederkorn, Gare routière",,"49.536076646001","5.893934948567",0,,,""
000220903002,"","Rodange, Cité à la Wissi",,"49.547032287660","5.827906064504",0,,,""
000220903020,"","Rodange, Schlaakemillen",,"49.548636302997","5.831936597070",0,,,""
000220903018,"","Rodange, Raths",,"49.551505668310","5.848040861169",0,,,""
000220901009,"","Lamadelaine, Spuerkeess",,"49.549039529264","5.850315353918",0,,,""
000190103003,"","Linger, Velo's Piste",,"49.562826356757","5.880645847103",0,,,""
000190102002,"","Hautcharage, Scheedwee",,"49.572766792981","5.902022401878",0,,,""
000190102003,"","Hautcharage, Stade",,"49.573768430918","5.919307657280",0,,,""
000190101019,"","Bascharage, Rue de Schouweiler",,"49.573175764965","5.923066478820",0,,,""
000221303002,"","Sanem, Kierch",,"49.547614307097","5.927743387852",0,,,""
000220203011,"","Niedercorn, Schoul",,"49.535452648718","5.891472407566",0,,,""
000220402091,"","Esch/Alzette, Rue du X Sep.",,"49.493449910202","5.979493634606",0,,,""
000220402031,"","Esch/Alzette, Place Pierre Ponath",,"49.477395498586","5.979336016110",0,,,""
000220402042,"","Esch/Alzette, Hiehl",,"49.484865480432","5.977716069542",0,,,""
000220402111,"","Esch/Alzette, Wäschbour",,"49.487674487929","5.978136832388",0,,,""
000220402095,"","Esch/Alzette, Rue Renaudin",,"49.488046240237","5.976870999199",0,,,""
000220402083,"","Esch/Alzette,  Barbourg",,"49.486374328769","5.972803461272",0,,,""
000220402082,"","Esch/Alzette, Rue d'Audun",,"49.489289112420","5.977609223351",0,,,""
000220402025,"","Esch/Alzette, Conserv. de musique",,"49.489496937662","5.975580047785",0,,,""
000220402107,"","Esch/Alzette, Rue de l'Alzette",,"49.494852799375","5.982570228288",0,,,""
000220402001,"","Esch/Alzette, Place des Remparts",,"49.496580930883","5.981220740354",0,,,""
000220402033,"","Esch/Alzette, Fettmeth",,"49.504743939631","5.975482175224",0,,,""
000220402112,"","Esch/Alzette, Wobrécken",,"49.503512001722","5.976193658509",0,,,""
000220402004,"","Esch/Alzette, Auszéibréck",,"49.498631728060","5.970886431451",0,,,""
000220402104,"","Esch/Alzette, Place Stalingrad",,"49.495290119638","5.972114972912",0,,,""
000220301009,"","Dudelange, Breiningerbierg",,"49.481607908048","6.090220541208",0,,,""
000220301027,"","Dudelange, Greisendall",,"49.463144238599","6.081915064530",0,,,""
000220301049,"","Dudelange, Schlakemillen",,"49.465322982568","6.081619914982",0,,,""
000220301050,"","Dudelange, Schmelz",,"49.468480330807","6.081956778697",0,,,""
000220301014,"","Dudelange, Casino",,"49.472119195674","6.083548976542",0,,,""
000220301056,"","Dudelange, Centre Culturel / CNA",,"49.474118051633","6.083968635662",0,,,""
000220301038,"","Dudelange, Rue de la Rivière",,"49.476451023896","6.084437508553",0,,,""
000220301024,"","Dudelange, Gemeng",,"49.478133666857","6.084447991558",0,,,""
000220301036,"","Dudelange, Niddeschgaass",,"49.480106322703","6.085255905491",0,,,""
000220201018,"","Differdange, Fonds de Logement",,"49.523227620389","5.885186006558",0,,,""
000220201006,"","Differdange, Centre",,"49.524257052085","5.889335872090",0,,,""
000220901006,"","Lamadelaine, Op Gehren",,"49.547451120972","5.851454630292",0,,,""
000220901013,"","Lamadelaine, Wisestrooss",,"49.550179638301","5.855842372712",0,,,""
000220901012,"","Lamadelaine, Bei der Millen",,"49.551441733113","5.858914178110",0,,,""
000220203002,"","Niedercorn, Altersheim",,"49.546500260733","5.889111585251",0,,,""
000220203004,"","Niedercorn, Cité de la Chiers",,"49.543655287026","5.889707180199",0,,,""
000220203008,"","Niedercorn, Péitengerwee",,"49.540035598588","5.890600761475",0,,,""
000220201057,"","Differdange, Wagner Koepges",,"49.531475761410","5.891462221420",0,,,""
000220201034,"","Differdange, Parc Gerlache",,"49.524269825946","5.890813879736",0,,,""
000220201054,"","Differdange, Seelebunn",,"49.518782791150","5.897214909085",0,,,""
000220204004,"","Obercorn, Place Prince Jean",,"49.515564508017","5.896976521857",0,,,""
000220402079,"","Esch/Alzette, Raemerich",,"49.509002097257","5.955365436532",0,,,""
000220402106,"","Esch/Alzette, Tramschapp",,"49.506420829002","5.958813875911",0,,,""
000220402105,"","Esch/Alzette, Rue des Tramways",,"49.504061855807","5.965591369427",0,,,""
000220402034,"","Esch/Alzette, Gare routière",,"49.494812690659","5.986205312628",0,,,""
000220301046,"","Dudelange, Rue Alexandre Fleming",,"49.490520023200","6.090078571839",0,,,""
000220901005,"","Lamadelaine, Maragole",,"49.548190366268","5.849858383047",0,,,""
000220901001,"","Lamadelaine, Avenue de la Gare",,"49.551421176456","5.848571786441",0,,,""
000220402014,"","Esch/Alzette, Bd Prince Henri",,"49.491751777148","5.974764238935",0,,,""
000220903009,"","Rodange, Gendarmerie",,"49.549944009854","5.838295841018",0,,,""
000220402087,"","Esch/Alzette, Rue des Mines",,"49.485503056155","5.975950585290",0,,,""
000220602006,"","Tétange, Rue Neuve",,"49.479667591455","6.040378981870",0,,,""
000220402064,"","Esch/Alzette, Neiduerf",,"49.495966406602","5.990084793307",0,,,""
000220601009,"","Kayl, Stellwierk",,"49.498170787588","6.036748325100",0,,,""
000220601002,"","Kayl, Am Pull",,"49.489182646322","6.038838150044",0,,,""
000220601007,"","Kayl, Post",,"49.486700374667","6.041680914504",0,,,""
000220402086,"","Esch/Alzette, Rue de Schifflange",,"49.496453618547","5.989447129001",0,,,""
000221301018,"","Belvaux, Roudewee Schoul",,"49.512636531017","5.941723014337",0,,,""
000220402022,"","Esch/Alzette, Cité Verte",,"49.509720581699","5.968667524174",0,,,""
000220902018,"","Pétange, Prënzebierg",,"49.552693307098","5.884887322670",0,,,""
000200102005,"","Bertrange, Spatzwiss",,"49.610678200033","6.068693399141",0,,,""
000200901007,"","Strassen, Bourmicht",,"49.610764161808","6.079916421642",0,,,""
000200101017,"","Bertrange, Rue de Mamer",,"49.615789364834","6.048572503785",0,,,""
000140701023,"","Ettelbruck, Lycée Technique Agricole",,"49.850242359666","6.099742170141",0,,,""
000140701020,"","Ettelbruck, Centre Hospitalier du Nord",,"49.853096069595","6.094075190758",0,,,""
000140701039,"","Ettelbruck, Rue Prince Jean",,"49.848136399566","6.100786522296",0,,,""
000140701013,"","Ettelbruck, Rue de Warken 49",,"49.848587058600","6.097587432891",0,,,""
000140701040,"","Ettelbruck, Serv Industriels",,"49.849865111232","6.096175173857",0,,,""
000140701038,"","Ettelbruck, Rue Pierre Krack",,"49.852533402834","6.093162811507",0,,,""
000140701007,"","Warken, Cité Bourschterbach",,"49.860704851614","6.087189148024",0,,,""
000140701028,"","Warken, Rue Bourschterbach",,"49.858434227753","6.089552266726",0,,,""
000140701031,"","Ettelbruck, Rue du Deich (CHNP)",,"49.843798633560","6.096413672658",0,,,""
000140701006,"","Ettelbruck, Hall Omnisports",,"49.841038861936","6.093268370341",0,,,""
000140701015,"","Ettelbruck, Ecole Primaire",,"49.845886580907","6.098959606058",0,,,""
000120903007,"","Weidingen, Erpeldangerstrooss",,"49.976419330345","5.942448794552",0,,,""
000120903040,"","Weidingen, Wegdicher Bréck",,"49.972289237176","5.940032553517",0,,,""
000120903030,"","Wiltz, Kautebaacherstrooss",,"49.966658913279","5.933276774951",0,,,""
000120903025,"","Wiltz, Wanselerstro./ADEM",,"49.963442944616","5.918530855738",0,,,""
000220201032,"","Obercorn, Gare",,"49.510714591170","5.890927842722",0,,,""
000220201045,"","Differdange, R. de la Montagne",,"49.520594948188","5.882976406515",0,,,""
000220203027,"","Niederkorn, Rue de Longwy",,"49.534681485064","5.889226633466",0,,,""
000220203029,"","Niedercorn, Route de Bascharage",,"49.540515033837","5.892035795037",0,,,""
000220203023,"","Niedercorn, Mathendahl",,"49.543236867892","5.893217942550",0,,,""
000220201031,"","Differdange, Moartplaz",,"49.522722297106","5.887802535250",0,,,""
000220201028,"","Niederkorn, CHEM 2",,"49.533692102034","5.888902431667",0,,,""
000200901002,"","Strassen, Atrium",,"49.608511603627","6.079068153457",0,,,""
000220201023,"","Differdange, Gewännchen",,"49.521332671136","5.915171267059",0,,,""
000500000010,"","Dillingen (Saar), Eissporthalle",,"49.346701221432","6.711075114888",0,,,""
000160601006,"","Larochette, Millewee",,"49.781621713689","6.218659126973",0,,,""
000160501002,"","Heffingen, Centre",,"49.770399710678","6.239928586883",0,,,""
000160501004,"","Heffingen, Thommes",,"49.763258263820","6.241500939150",0,,,""
000160502001,"","Reuland",,"49.752179606954","6.260638265945",0,,,""
000180511006,"","Junglinster, Um Radio",,"49.720111208317","6.266468122317",0,,,""
000180507001,"","Godbrange, Bei der Kiirch",,"49.734367511684","6.232660884693",0,,,""
000180501001,"","Altlinster",,"49.722116026949","6.218080058702",0,,,""
000180504001,"","Bourglinster, Am Brill",,"49.707041369114","6.217457384112",0,,,""
000180504002,"","Bourglinster, Am Duerf",,"49.703431507571","6.217733071062",0,,,""
000180504003,"","Bourglinster, Buchholz",,"49.704021864340","6.211984428179",0,,,""
000180510001,"","Imbringen, Am Duerf",,"49.701239149080","6.193626860974",0,,,""
000160802001,"","Blaschette, Op der Kräizung",,"49.702536409376","6.166379247533",0,,,""
000160806001,"","Klingelscheuer",,"49.692821836962","6.167540859471",0,,,""
000160801001,"","Asselscheuer/Uesselscheier",,"49.690932818003","6.171963507560",0,,,""
000180505001,"","Eisenborn, Am Duerf",,"49.691777981456","6.184118009523",0,,,""
000201005001,"","Stafelter",,"49.658718443961","6.174234290267",0,,,""
000200405036,"","Luxembourg, Gare Centrale routière",,"49.599066062048","6.133033290350",0,,,""
000180511003,"","Junglinster, Op der Rumm",,"49.714829101753","6.248187379386",0,,,""
000160601005,"","Larochette, Leedebach",,"49.789222035571","6.219349141718",0,,,""
000141001001,"","Medernach, Fondation",,"49.802134964904","6.217246949464",0,,,""
000140503001,"","Stegen, Bloen Eck",,"49.827793568397","6.177906426763",0,,,""
000140503002,"","Stegen, Eglise",,"49.828876875210","6.168845551151",0,,,""
000160601007,"","Larochette, Pomjeesbau",,"49.781685251748","6.218308153831",0,,,""
000160602002,"","Ernzen, Manzebach",,"49.776984757259","6.219244261285",0,,,""
000160501005,"","Heffingen, Soup",,"49.767221808361","6.230039537266",0,,,""
000140401008,"","Diekirch, Lorentzwues",,"49.860235315480","6.145664949627",0,,,""
000140701024,"","Ettelbruck, Poste",,"49.847805701888","6.102670598895",0,,,""
000170803002,"","Müllerthal/Möllerdall",,"49.790712416758","6.306765736772",0,,,""
000170801002,"","Christnach, Schoulstrooss",,"49.788213922350","6.273042126429",0,,,""
000170802002,"","Haller, Schoul",,"49.820134762118","6.282732047369",0,,,""
000170101001,"","Beaufort, Aispist",,"49.840766264957","6.289030915797",0,,,""
000170801001,"","Christnach, Hierheck",,"49.787346297826","6.269436526934",0,,,""
000170405001,"","Jemenerhaff",,"49.773589284146","6.299269827878",0,,,""
000170207001,"","Kobenbour",,"49.754566707412","6.306783848867",0,,,""
000170501004,"","Echternach, Centre de secours",,"49.808250642868","6.411131317705",0,,,""
000170503001,"","Specksmillen",,"49.802126629310","6.396780942486",0,,,""
000170502001,"","Lauterborn",,"49.799934500519","6.391311471135",0,,,""
000170405003,"","Mechelshaff",,"49.775124856412","6.381795443099",0,,,""
000170205001,"","Rippig, Rippigerkopp",,"49.746379784528","6.309083902872",0,,,""
000200509001,"","Waldhaff",,"49.656907620525","6.191495138281",0,,,""
000170403001,"","Scheidgen, Biweschland",,"49.785323451332","6.369366024721",0,,,""
000170403002,"","Scheidgen, Hotschent",,"49.783179676330","6.354241044094",0,,,""
000170402002,"","Consdorf, Haenricht",,"49.780864910483","6.340766093881",0,,,""
000170402001,"","Consdorf, Gare",,"49.773145136822","6.341105471452",0,,,""
000170501007,"","Echternach, Fielsmillen",,"49.818075486394","6.406366278103",0,,,""
000170501002,"","Echternach, Bel Air",,"49.819985719409","6.395279971702",0,,,""
000170301003,"","Berdorf, Hôtel Perekop",,"49.819914307315","6.358758048642",0,,,""
000170305001,"","Bif. Kalkesbach",,"49.800202562637","6.343347771739",0,,,""
000170402004,"","Consdorf, Melicksheck",,"49.787666300702","6.345881953970",0,,,""
000170202002,"","Bech, Beim Weiher",,"49.752274264168","6.362338527389",0,,,""
000150105002,"","Lévelange, Kalek",,"49.731727109347","5.870490356738",0,,,""
000170203002,"","Hemstal, Kiirch",,"49.739372593807","6.333610801081",0,,,""
000170205002,"","Rippig",,"49.738142430117","6.322407167843",0,,,""
000180502002,"","Beidweiler, Op der Gare",,"49.732276665873","6.302244703200",0,,,""
000180502001,"","Beidweiler, Am Duerf",,"49.728200753495","6.301443802127",0,,,""
000170402006,"","Consdorf, Schoul",,"49.779818732597","6.337127971854",0,,,""
000200404008,"","Bonnevoie, Dernier Sol",,"49.595097907951","6.135909595586",0,,,""
000200304010,"","Howald, Rangwee",,"49.588176503338","6.139055159261",0,,,""
000180703002,"","Wasserbillig, Cimetière",,"49.717666213289","6.499742130480",0,,,""
000180508005,"","Gonderange, Schoul",,"49.692922203814","6.247761242104",0,,,""
000200502001,"","Ernster, Duerfplaz",,"49.679431385054","6.248287656322",0,,,""
000200502002,"","Ernster, Engelshaff",,"49.673894909480","6.243970207399",0,,,""
000200506003,"","Rameldange, Beiebierg",,"49.669575005354","6.234095755420",0,,,""
000200506001,"","Rameldange, Am Duerf",,"49.662387396431","6.228848975079",0,,,""
000200506006,"","Rameldange, Op der Bunn",,"49.661421391914","6.229458238806",0,,,""
000200508002,"","Senningerberg, Breedewues",,"49.655141952417","6.224576991052",0,,,""
000200508011,"","Senningerberg, Rue du Golf",,"49.645095325719","6.221297104201",0,,,""
000200502003,"","Ernster, Naasswiss",,"49.682542727309","6.247474143986",0,,,""
000200305005,"","Itzig, Hubertuspad",,"49.587268978001","6.169814885941",0,,,""
000200305007,"","Itzig, Kierch",,"49.585948748803","6.171745564055",0,,,""
000200305006,"","Itzig, Kapell",,"49.584519622740","6.169960217110",0,,,""
000200305002,"","Itzig, Am Kiemert",,"49.582106050134","6.166917520036",0,,,""
000200303003,"","Hesperange, Holleschbierg",,"49.577438527778","6.162580816801",0,,,""
000200303004,"","Hesperange, Itziger Eck",,"49.574424741414","6.160016469604",0,,,""
000200303001,"","Hesperange, Am Keller",,"49.573386963654","6.157323747793",0,,,""
000200303007,"","Hesperange, Wollefsmillen",,"49.577122431857","6.153744657261",0,,,""
000200304001,"","Howald, Am Houwaldsbierg",,"49.581842738350","6.148516401658",0,,,""
000200508007,"","Senningerberg, Laangschib",,"49.644419874446","6.220892244335",0,,,""
000200507001,"","Senningen, Duerfplaz",,"49.645939245052","6.238885879161",0,,,""
000200504002,"","Niederanven, Laach",,"49.651533999166","6.254725393694",0,,,""
000200504005,"","Niederanven, Op de Wolleken",,"49.655530814331","6.250661949236",0,,,""
000200505003,"","Oberanven, Routstrach",,"49.658150439100","6.248463268538",0,,,""
000200505001,"","Oberanven, Fielsenhaus",,"49.657579596012","6.243756100531",0,,,""
000200505005,"","Oberanven, Rue Schetzel",,"49.659277779899","6.239516469952",0,,,""
000200305008,"","Itzig, Klouschter",,"49.585949904616","6.174001031046",0,,,""
000200305001,"","Itzig, Am Horra",,"49.585482111731","6.178054783617",0,,,""
000200305004,"","Itzig, Dellbierg",,"49.588983079084","6.171113327147",0,,,""
000200305003,"","Itzig, An den Espen",,"49.586338696065","6.167460977117",0,,,""
000200705004,"","Schuttrange, Kiercheplaz",,"49.623749040010","6.267837466794",0,,,""
000200504003,"","Niederanven, Millen",,"49.649672593142","6.259693461725",0,,,""
000180512001,"","Rodenbourg, Am Duerf",,"49.688756929575","6.288154478049",0,,,""
000180105002,"","Olingen, Beim leschte Wollef",,"49.681828170363","6.308505227461",0,,,""
000180105003,"","Olingen, Rue de Rodenbourg",,"49.680193290157","6.314030282202",0,,,""
000180401008,"","Grevenmacher, Tanneurs",,"49.680788491350","6.440730112288",0,,,""
000180401001,"","Grevenmacher, Copal",,"49.676158134255","6.427457065117",0,,,""
000180401007,"","Grevenmacher, Seidenbroch",,"49.674996083544","6.420919869238",0,,,""
000180402001,"","Potaschbierg",,"49.677493405280","6.399854274102",0,,,""
000180302001,"","Flaxweiler, Buchholz",,"49.661355341143","6.362132429422",0,,,""
000210401001,"","Canach, Am Stee",,"49.612265031886","6.332000124582",0,,,""
000180301001,"","Beyren, An der Fuert",,"49.632901962466","6.333545397892",0,,,""
000180104002,"","Mensdorf, Uewen am Duerf",,"49.653438614637","6.305901428995",0,,,""
000180104001,"","Mensdorf, Ennen am Duerf",,"49.654602352823","6.302178927528",0,,,""
000200204001,"","Oetrange, Gare routière",,"49.602615843657","6.259053038318",0,,,""
000200704001,"","Schrassig, Bastenhaff",,"49.609632304392","6.258645496316",0,,,""
000200704003,"","Schrassig, Schwaarz Kaz",,"49.612978278413","6.258997656576",0,,,""
000200705005,"","Schuttrange, Kreizung",,"49.621103705280","6.266296106605",0,,,""
000200508009,"","Senningerberg, Rue des Pins",,"49.648228355378","6.237924996120",0,,,""
000200508004,"","Senningerberg, Gromscheed",,"49.651671901023","6.231065169187",0,,,""
000200508006,"","Senningerberg, Kapell",,"49.650162345629","6.226633889794",0,,,""
000200702002,"","Neuhaeusgen, Iewescht Neihaischen",,"49.622674038538","6.242625216531",0,,,""
000200702001,"","Neuhaeusgen, Ennescht Neihaischen",,"49.622808086024","6.231663904713",0,,,""
000200704002,"","Schrassig, Schlassgewan",,"49.614562228966","6.255987340278",0,,,""
000200705003,"","Schuttrange, Kanecherstrooss",,"49.619641163856","6.270268997263",0,,,""
000200706001,"","Uebersyren, Kreizgaass",,"49.631461070387","6.276325428463",0,,,""
000180802002,"","Ehnen, Bromelt",,"49.597308299975","6.380192840295",0,,,""
000210401004,"","Canach, Post",,"49.609401956386","6.324500773737",0,,,""
000210401002,"","Canach, Huehlgaass",,"49.608050110154","6.315853329913",0,,,""
000200204005,"","Oetrange, Staefeld",,"49.602644157242","6.267855085703",0,,,""
000200204006,"","Oetrange, Trengen Knapp",,"49.599730388144","6.256875705176",0,,,""
000200601010,"","Sandweiler, Schiltzperdgen",,"49.615716550469","6.221806061395",0,,,""
000200601004,"","Sandweiler, Hiel",,"49.616962133237","6.215988966895",0,,,""
000200601006,"","Sandweiler, Kontrollstatioun",,"49.615762400495","6.209508199542",0,,,""
000210102004,"","Bous, Kierch",,"49.555327704645","6.329269567717",0,,,""
000500000073,"","Saarlouis, Kleiner Markt",,"49.313523111814","6.753219703462",0,,,""
000200601009,"","Sandweiler, Schaedhaff",,"49.606888064231","6.203757905874",0,,,""
000210803004,"","Stadtbredimus, Schoul",,"49.563702856807","6.363362308497",0,,,""
000210803001,"","Stadtbredimus, Dicksstrooss",,"49.562352108254","6.358967808797",0,,,""
000210102002,"","Bous, Herdermillen",,"49.556069970919","6.338051884579",0,,,""
000210102003,"","Bous, Kapell",,"49.554472332593","6.325734678765",0,,,""
000210104001,"","Rolling/Bous",,"49.550133929550","6.316320299289",0,,,""
000210101001,"","Assel",,"49.554459221132","6.313524878842",0,,,""
000210904002,"","Waldbredimus, Kiirch",,"49.556788609510","6.287674816491",0,,,""
000200203001,"","Moutfort, Bombasch",,"49.594749695767","6.250193767731",0,,,""
000200203004,"","Moutfort-Kiem",,"49.585871776508","6.261251140905",0,,,""
000210803002,"","Stadtbredimus, Kreizgaass",,"49.563715913010","6.364329773866",0,,,""
000210701003,"","Remich, Caves St. Martin",,"49.553350169838","6.380472184681",0,,,""
000210701012,"","Remich, Pl. Nico Klopp",,"49.546651348864","6.361626104732",0,,,""
000210701014,"","Remich, Route de Luxembourg",,"49.546424967368","6.357227777887",0,,,""
000200420006,"","Merl, Geesseknäppchen (S)",,"49.601719612891","6.113484660317",0,,,""
000210701015,"","Remich, rue de la Corniche",,"49.553675718427","6.377371091741",0,,,""
000160201005,"","Boevange, Lëtschert",,"49.773193764567","6.017762749242",0,,,""
000200202002,"","Medingen",,"49.575206167472","6.248913268497",0,,,""
000200203002,"","Moutfort, Juxgaass",,"49.587990508734","6.251584183294",0,,,""
000200201006,"","Contern, Millewee",,"49.586910055674","6.231178859885",0,,,""
000200201003,"","Contern, Kiircheplaz",,"49.585259416895","6.227619291938",0,,,""
000200201001,"","Contern, Birewee",,"49.586489621204","6.223398220376",0,,,""
000210301001,"","Dalheim, Hossegaass",,"49.540656571096","6.261651956276",0,,,""
000210301004,"","Dalheim, Gemeng",,"49.543166266359","6.258981555542",0,,,""
000210301002,"","Dalheim, Poste",,"49.542823427786","6.256664278558",0,,,""
000201102003,"","Syren, Troudelermillen",,"49.565156727768","6.215065321847",0,,,""
000200301001,"","Alzingen, Gässel",,"49.567841912114","6.163787643565",0,,,""
000200303006,"","Hesperange, Urbengsschlass",,"49.571491318908","6.159993134796",0,,,""
000220502003,"","Frisange, Hau",,"49.522578175296","6.185410842630",0,,,""
000201103004,"","Weiler-la-Tour, Schlammestee",,"49.533912689385","6.180197962207",0,,,""
000200301002,"","Alzingen, Hondsbréck",,"49.564559152921","6.162359667578",0,,,""
000200301003,"","Alzingen, Trapeneck",,"49.567837688076","6.161049049484",0,,,""
000210701011,"","Remich, Piscine",,"49.539587947324","6.364329136099",0,,,""
000211001002,"","Bech-Kleinmacher, Centre",,"49.531948930125","6.354428970124",0,,,""
000211003001,"","Wellenstein, Centre",,"49.524873363107","6.341682009029",0,,,""
000210501002,"","Altwies, Beckeschmillen",,"49.509344041881","6.250069264730",0,,,""
000220501002,"","Aspelt, Gare",,"49.520368464999","6.225751113932",0,,,""
000220502002,"","Frisange, Ennescht Duerf",,"49.516660588821","6.198090197864",0,,,""
000210105001,"","Emeringerhaff",,"49.539418071663","6.323252908593",0,,,""
000211002001,"","Schwebsingen, Centre",,"49.511855038557","6.356563656240",0,,,""
000211002002,"","Schwebsingen, Op der Hoh",,"49.508180063277","6.355974343929",0,,,""
000210601003,"","Remerschen, Kiosk",,"49.488186905671","6.351113854110",0,,,""
000210601002,"","Remerschen, Ennen am Doref",,"49.486348534169","6.354513496910",0,,,""
000210602002,"","Schengen, Koerech",,"49.470472604775","6.364079899075",0,,,""
000210602005,"","Schengen, Um Haff",,"49.469443296069","6.358006020143",0,,,""
000210201001,"","Burmerange, Bei der Kiirch",,"49.486196553051","6.322125449314",0,,,""
000210202001,"","Elvange/Mondorf, Bei Tubes",,"49.505148519600","6.315385089543",0,,,""
000210202003,"","Elvange/Mondorf, Villette",,"49.506888406409","6.314764846341",0,,,""
000211001003,"","Bech-Kleinmacher, Furwee",,"49.527687107806","6.354534732609",0,,,""
000210203001,"","Emerange, Centre Culturel",,"49.487420069749","6.291235772189",0,,,""
000201101002,"","Hassel, Karmesch",,"49.550046045171","6.208859346094",0,,,""
000201101001,"","Hassel, Dielchen",,"49.551043366611","6.204709480654",0,,,""
000221106002,"","Roeser, Gemeng",,"49.540889963192","6.145206273191",0,,,""
000221103001,"","Crauthem, Am Gruef",,"49.537283912911","6.144905020649",0,,,""
000221103002,"","Crauthem, Beim Schlass",,"49.534805923995","6.144745377715",0,,,""
000221105002,"","Peppange, Kirchwois",,"49.527222847458","6.132789889716",0,,,""
000220102003,"","Bettembourg, Am Dräieck",,"49.519593603137","6.109661204534",0,,,""
000220102005,"","Bettembourg, Gare routière",,"49.516533790006","6.102075897738",0,,,""
000221106004,"","Roeser, Op der Hoehl",,"49.548314005011","6.151119922796",0,,,""
000221104001,"","Livange, Am Duerf",,"49.530011354563","6.120104029687",0,,,""
000221104002,"","Livange, Geespelt",,"49.533277506076","6.124819074932",0,,,""
000221102002,"","Bivange, Schoul",,"49.541082760815","6.135904637267",0,,,""
000221102001,"","Bivange, Edward Steichen",,"49.545782624899","6.137869541190",0,,,""
000200302002,"","Fentange, Fuertwee",,"49.564060914875","6.151973476639",0,,,""
000200302001,"","Fentange, Duelemerbach",,"49.569944972595","6.151257384602",0,,,""
000221105001,"","Peppange, Duerfplaz",,"49.523495295000","6.126871946859",0,,,""
000221101001,"","Berchem, Gare",,"49.542666786799","6.133751981166",0,,,""
000400000066,"","Ottange, Pl. de Montcontour",,"49.441894974120","6.021655611909",0,,,""
000221201005,"","Rumelange, Gare routière",,"49.460127437484","6.033040936845",0,,,""
000221201003,"","Rumelange, Atelier Kihn",,"49.465207889002","6.036792208819",0,,,""
000220601018,"","Kayl, Rue de Noertzange",,"49.496074051561","6.049389127460",0,,,""
000220105003,"","Noertzange, Route de Kayl",,"49.507887628345","6.058957007232",0,,,""
000220104001,"","Huncherange, Kiirch",,"49.516093694058","6.064309579463",0,,,""
000220104002,"","Huncherange, Kreizung",,"49.517660238014","6.064353911912",0,,,""
000220104004,"","Huncherange, Rue d'Esch 1",,"49.518279397877","6.069609375452",0,,,""
000220103001,"","Fennange, Am Duerf",,"49.518978051199","6.075882818606",0,,,""
000220101001,"","Abweiler",,"49.533878745582","6.081669755715",0,,,""
000200418002,"","Kockelscheuer, Kräizhaff",,"49.562377965318","6.108088749460",0,,,""
000200418004,"","Kockelscheuer, Plateau",,"49.560158406840","6.108192278744",0,,,""
000200418005,"","Kockelscheuer, Poudrerie",,"49.555291900421","6.106419334239",0,,,""
000220102001,"","Bettembourg, 12 Gargullen",,"49.525705694147","6.100814682345",0,,,""
000220102002,"","Bettembourg, Al Gemeng",,"49.519991250272","6.100033472822",0,,,""
000220204003,"","Obercorn, Neiduerf",,"49.514549069646","5.902388380603",0,,,""
000221301006,"","Belvaux-Soleuvre, Gare routière",,"49.514409301358","5.925459294991",0,,,""
000221301007,"","Belvaux, Gemeng",,"49.511211584307","5.930053708723",0,,,""
000221301005,"","Belvaux, Brill",,"49.508837476981","5.943673293162",0,,,""
000220201003,"","Differdange, Arbed",,"49.522867449163","5.894537638512",0,,,""
000220201019,"","Differdange, Fousbann",,"49.521864210903","5.898387928476",0,,,""
000220201026,"","Differdange, Hansen",,"49.520800914348","5.906719446520",0,,,""
000221304012,"","Soleuvre, Place de l'Indépendance",,"49.522099203383","5.936212395276",0,,,""
000220803017,"","Mondercange, Musekssall",,"49.528942883963","5.987796158421",0,,,""
000220803005,"","Mondercange, Centre",,"49.531111943975","5.987828622042",0,,,""
000220803016,"","Mondercange, Kierfecht",,"49.535373717545","5.983585252818",0,,,""
000220803003,"","Mondercange, Blach",,"49.538757663949","5.986044935589",0,,,""
000220803013,"","Mondercange, Krombach",,"49.528742214260","5.997027635390",0,,,""
000220802003,"","Foetz, Am Brill",,"49.521154719505","6.010787214210",0,,,""
000220801002,"","Bergem, Blummestrooss",,"49.519342661570","6.045638900583",0,,,""
000220801008,"","Bergem, Raedelsboesch",,"49.521349574465","6.048129787293",0,,,""
000220801009,"","Bergem, Steebréckerwee",,"49.527302058044","6.036396170425",0,,,""
000220804014,"","Pontpierre, Steewee",,"49.531037013418","6.032590180955",0,,,""
000220804007,"","Pontpierre, Bei der Kierch",,"49.533701118690","6.028779451164",0,,,""
000220804002,"","Pontpierre, Leideleng",,"49.540962890756","6.035845839702",0,,,""
000220804013,"","Pontpierre, Lëtzebuergerstr.",,"49.539710353562","6.034013846242",0,,,""
000220804001,"","Pontpierre, Beim Kueb",,"49.537551736308","6.030882091414",0,,,""
000220804008,"","Pontpierre, Koppbierg",,"49.536310222861","6.028082008677",0,,,""
000220802004,"","Foetz, Am Butterbrill",,"49.522167490182","6.009246690732",0,,,""
000220802010,"","Foetz, Rond Point",,"49.525249510673","6.004580594851",0,,,""
000220803015,"","Mondercange, Mausereck",,"49.539072070169","5.986716817573",0,,,""
000220803023,"","Mondercange, Rommelterhiel",,"49.528481180786","5.987340792458",0,,,""
000220803007,"","Mondercange, Dirbett",,"49.524521060270","5.988662354661",0,,,""
000220701002,"","Leudelange, Bowent",,"49.580287516459","6.061591511292",0,,,""
000220701010,"","Leudelange, Ketzelach",,"49.579638943045","6.057313638589",0,,,""
000220701013,"","Leudelange, Queesche Wee",,"49.570410911917","6.062364769203",0,,,""
000220701016,"","Leudelange, Wäschbur",,"49.566972197670","6.064411008362",0,,,""
000220701008,"","Leudelange, Gruef",,"49.562892593021","6.065665500139",0,,,""
000221303004,"","Sanem, Op Lohr",,"49.552380537237","5.927665427815",0,,,""
000221303009,"","Sanem, Zentrum",,"49.548331036628","5.929661897027",0,,,""
000221303007,"","Sanem, Schlass",,"49.543935785973","5.931513777219",0,,,""
000221002002,"","Limpach, Uecht",,"49.555959807774","5.979854755081",0,,,""
000221003001,"","Pissange, Wäschbur",,"49.549000392742","6.001440331577",0,,,""
000221001002,"","Ehlange, Am Pull",,"49.548979409641","6.012793982718",0,,,""
000221004001,"","Reckange/Mess, Am Duerf",,"49.562099269173","6.007331840231",0,,,""
000221004002,"","Reckange/Mess, Findel",,"49.564347027107","6.007277321283",0,,,""
000221005001,"","Roedgen, Laangwis",,"49.573400810803","6.032884083685",0,,,""
000220701009,"","Leudelange, Kamellebierg",,"49.570536600046","6.063062727261",0,,,""
000221002001,"","Limpach, Kiirch",,"49.557904624738","5.979568749948",0,,,""
000221302005,"","Ehlerange, Keupewee",,"49.525889435894","5.961876020559",0,,,""
000221302008,"","Ehlerange, Schoul",,"49.523423893539","5.966313239892",0,,,""
000220903008,"","Rodange, Gare routière",,"49.550951167177","5.844204631868",0,,,""
000220203009,"","Niedercorn, Moartplatz",,"49.534889114104","5.891259356019",0,,,""
000221303003,"","Sanem, Niederkuererstrooss",,"49.540854807542","5.913111784049",0,,,""
000190101013,"","Bascharage, Jules Hemmer",,"49.560195939776","5.885861856751",0,,,""
000190103001,"","Linger, Schoul",,"49.565317479269","5.886282740027",0,,,""
000190102004,"","Hautcharage, Um Kläppchen",,"49.574869001296","5.909304784232",0,,,""
000190101021,"","Bascharage, Widdems Bierg",,"49.569815745025","5.906387090588",0,,,""
000190101009,"","Bascharage, Eglise",,"49.568121801857","5.906964565517",0,,,""
000190101016,"","Bascharage, Place Schuman",,"49.565359042135","5.907609572656",0,,,""
000190101006,"","Bascharage, Brasserie",,"49.567974889277","5.912576246132",0,,,""
000190101017,"","Bascharage, Prince Henri",,"49.571126417214","5.918408882689",0,,,""
000190303004,"","Schouweiler, Kastill",,"49.578200565153","5.946658704960",0,,,""
000190303005,"","Schouweiler, Kiirch",,"49.581667104115","5.957345636420",0,,,""
000190302005,"","Dippach, Op der Kopp",,"49.587393369273","5.971907030015",0,,,""
000190302002,"","Dippach, Bei der Kapell",,"49.587775824224","5.980684643991",0,,,""
000190302006,"","Dippach, Um Däich",,"49.587510125264","5.988090786350",0,,,""
000190302003,"","Dippëcherbierg",,"49.588868340820","5.993265837144",0,,,""
000190101004,"","Bascharage, Bommelscheier",,"49.571992171599","5.920512458669",0,,,""
000190101001,"","Bascharage, Arcades",,"49.565730863384","5.908056367621",0,,,""
000190301001,"","Bettange, Bei der Barriär",,"49.572785634404","5.996163911787",0,,,""
000200420005,"","Merl, Geesseknäppchen (N)",,"49.603609981511","6.108486473950",0,,,""
000191104008,"","Steinfort, Um Quai",,"49.658036022147","5.911366852774",0,,,""
000191104004,"","Steinfort, Gemeng",,"49.659421045963","5.913371816243",0,,,""
000190704001,"","Wandhaff",,"49.646701952497","5.956920613631",0,,,""
000190901004,"","Capellen, Police",,"49.644214128624","5.992515804076",0,,,""
000190903005,"","Mamer, Eglantiers",,"49.634079775786","6.016674371870",0,,,""
000190903012,"","Mamer, Mambra",,"49.631518318754","6.022011184739",0,,,""
000190903002,"","Mamer, Baerendall",,"49.629898373116","6.025835789271",0,,,""
000190903007,"","Mamer, Gaaschtbierg",,"49.627171857654","6.032469698829",0,,,""
000160910001,"","Mersch, Bënzert",,"49.753313220091","6.139384042466",0,,,""
000200901011,"","Strassen, Schoenacht",,"49.622139971868","6.057716100394",0,,,""
000200901016,"","Strassen, Geesseneck",,"49.621637390819","6.062011566894",0,,,""
000200901022,"","Strassen, Michel Angelo",,"49.616680417963","6.086915136627",0,,,""
000200901010,"","Strassen, Follereau",,"49.618617125834","6.058219187972",0,,,""
000200901029,"","Strassen, Terminus",,"49.621916075411","6.058463541503",0,,,""
000190201007,"","Clemency, Schock",,"49.604821277459","5.877895509809",0,,,""
000190201002,"","Clemency, Eecherwee",,"49.602175697049","5.875877437211",0,,,""
000190201004,"","Clemency, Gemeng",,"49.598594926927","5.873545689454",0,,,""
000190201005,"","Clemency, Henn",,"49.594166540115","5.877469117535",0,,,""
000190201008,"","Clemency, Schwemm",,"49.594780750469","5.880225692081",0,,,""
000190202002,"","Fingig, Dillesbierg",,"49.600867499158","5.901154325300",0,,,""
000190202003,"","Fingig, Maerchen",,"49.602816915054","5.909114941110",0,,,""
000190403003,"","Hivange, Kleng Béiwéng",,"49.603612417790","5.926811520466",0,,,""
000190902002,"","Holzem, Festsall",,"49.615915773715","5.993054524594",0,,,""
000190902003,"","Holzem, Mamerstrooss",,"49.617839333439","5.998530259627",0,,,""
000190903004,"","Mamer, Coq Hardi",,"49.623271002443","6.011297030549",0,,,""
000190903009,"","Mamer, Holzemerstrooss",,"49.624789775344","6.015414126588",0,,,""
000190903006,"","Mamer, Eisebunnsbréck",,"49.627413395262","6.018771523630",0,,,""
000190903014,"","Mamer, Zentrum",,"49.628903950835","6.021104248317",0,,,""
000190501001,"","Eischen, Denn",,"49.683896252837","5.878653547272",0,,,""
000191104005,"","Steinfort, Kolonie",,"49.666527261158","5.919741426684",0,,,""
000191104007,"","Steinfort, Schoul",,"49.658210017039","5.913503924880",0,,,""
000191102005,"","Hagen, Op Eechelter",,"49.653737207396","5.921214625881",0,,,""
000191102004,"","Hagen, Laach",,"49.651209237650","5.923923860190",0,,,""
000191102003,"","Hagen, Kiirch",,"49.648649626815","5.929170434473",0,,,""
000150606007,"","Redange, Osperstrooss",,"49.764996323324","5.889500417667",0,,,""
000150606003,"","Redange, Gare",,"49.764610392995","5.882177790834",0,,,""
000150303003,"","Ell, Beim Schreider",,"49.763249859274","5.859140339098",0,,,""
000150101001,"","Beckerich, Bei Schmatten",,"49.730190290487","5.883552520459",0,,,""
000150101002,"","Beckerich, Fraiheetsbam",,"49.727998053460","5.891020931770",0,,,""
000150103001,"","Hovelange, Bei Bitzesch",,"49.722759695841","5.910755975491",0,,,""
000150108002,"","Schweich, Peiffer",,"49.720884715459","5.921421226702",0,,,""
000190503001,"","Kreizerbuch",,"49.701549323488","5.915278744594",0,,,""
000190502001,"","Hobscheid, Ehnerpad",,"49.696014344659","5.918916503525",0,,,""
000190502004,"","Hobscheid, Steekaul",,"49.693559469396","5.917948477689",0,,,""
000190502003,"","Hobscheid, Schoul",,"49.687817979281","5.913499956304",0,,,""
000190502002,"","Hobscheid, Hiehl",,"49.684972204906","5.916093032834",0,,,""
000150606001,"","Redange/Attert, Bian",,"49.764021255044","5.888368415519",0,,,""
000150303002,"","Ell, Beim Musikssaul",,"49.762920068108","5.853953403763",0,,,""
000191002001,"","Septfontaines, Schoul",,"49.699276426498","5.964731776522",0,,,""
000190703001,"","Koerich, Fuurt",,"49.670565782970","5.942428035436",0,,,""
000190703002,"","Koerich, Gemeng",,"49.670018731890","5.949310172480",0,,,""
000190703003,"","Koerich, Weidewee",,"49.670088665256","5.952646532049",0,,,""
000190701001,"","Goeblange, Giewel",,"49.669544815004","5.965156167919",0,,,""
000190702002,"","Goetzingen, Kreiz",,"49.662379940597","5.978769013120",0,,,""
000190702001,"","Goetzingen, Kiirch",,"49.661545743550","5.979208779238",0,,,""
000190604003,"","Meispelt, Kuesselt",,"49.692147378187","6.060769254030",0,,,""
000190604002,"","Meispelt, Kräizwee",,"49.685907146807","6.058067514460",0,,,""
000190602004,"","Kehlen, Schaarfeneck",,"49.670741232134","6.035944532323",0,,,""
000190602001,"","Kehlen, Bei Fiewer",,"49.667517090119","6.034407974929",0,,,""
000190602006,"","Kehlen, Zone Industrielle 3",,"49.664399325091","6.012185698685",0,,,""
000190605002,"","Nospelt, Kräizhiel",,"49.672683935822","6.011442108761",0,,,""
000190605003,"","Nospelt, Pompjeesbau",,"49.673275981246","6.008938226444",0,,,""
000190606003,"","Olm, Kréimerech",,"49.655198677208","5.998046565983",0,,,""
000190606002,"","Olm, Kräizwee",,"49.651092386599","5.994779798535",0,,,""
000150606008,"","Redange, Schleisschen",,"49.762972571446","5.894879926487",0,,,""
000150606010,"","Redange, Solupla",,"49.759921728990","5.894172245454",0,,,""
000150604001,"","Niederpallen, Ditzebierg",,"49.755589368253","5.908099643426",0,,,""
000150604002,"","Niederpallen, Veräinsbau",,"49.754886354846","5.911421545217",0,,,""
000150106001,"","Noerdange, Ale Pompjesbau",,"49.742677352433","5.928301418628",0,,,""
000150802001,"","Rippweiler, Beim Nössert",,"49.751132648102","5.955828826615",0,,,""
000161106001,"","Tuntange, Duerf",,"49.716747998978","6.009666015295",0,,,""
000161106005,"","Tuntange, Weisserchen",,"49.713220172346","6.012754768572",0,,,""
000161102001,"","Bour",,"49.700877882954","6.017673385808",0,,,""
000190802002,"","Kopstal, Kapell",,"49.661316545472","6.072482403394",0,,,""
000190801001,"","Bridel, Berk",,"49.659750878766","6.078521834456",0,,,""
000190801002,"","Bridel, Flamo",,"49.659018203000","6.081573045583",0,,,""
000190801005,"","Bridel, Taverne",,"49.657191454254","6.082624732089",0,,,""
000190801004,"","Bridel, Stuff",,"49.652910873401","6.083407378041",0,,,""
000150704003,"","Saeul, Gemeng",,"49.726614511840","5.985980308589",0,,,""
000150606004,"","Redange, Gemeng",,"49.764316851020","5.888655036176",0,,,""
000150202002,"","Platen",,"49.786905021491","5.936132973939",0,,,""
000150607001,"","Reichlange, Hostellerie",,"49.775450104667","5.925186533349",0,,,""
000161105001,"","Marienthal",,"49.710222464454","6.058692758909",0,,,""
000161104001,"","Kuelbecherhaff",,"49.717780806836","6.062287457208",0,,,""
000161103002,"","Hollenfels, Vereinsbau",,"49.715384708630","6.051554374802",0,,,""
000161103001,"","Hollenfels, Schoul",,"49.712688304083","6.048124406791",0,,,""
000161106003,"","Tuntange, Knupp",,"49.716465509028","6.016149164205",0,,,""
000161106002,"","Tuntange, Kiirch",,"49.717711668481","6.009010141376",0,,,""
000191001001,"","Greisch, Op der Quaert",,"49.710000588191","5.986773558376",0,,,""
000191004001,"","Leesbach",,"49.701667586936","5.985652631212",0,,,""
000191002002,"","Septfontaines, Simmerfarm",,"49.695656191352","5.987314644300",0,,,""
000150702001,"","Ehner, Kapell",,"49.717153937349","5.948020649880",0,,,""
000150702002,"","Ehner, Krier",,"49.717532713184","5.950785867374",0,,,""
000150701001,"","Calmus, Lannekneppchen",,"49.721613924488","5.960923671900",0,,,""
000150701003,"","Calmus, Wäschbur",,"49.724980336902","5.963044772966",0,,,""
000150703001,"","Kapweiler, Kapell",,"49.739107049852","5.968617325617",0,,,""
000150703002,"","Kapweiler, Lavandier",,"49.740420845472","5.964509613237",0,,,""
000150705001,"","Schwebach, Am Duerf",,"49.745644749145","5.970916870814",0,,,""
000190801003,"","Bridel, Schanz",,"49.648969624377","6.084446697732",0,,,""
000160909002,"","Schoenfels, Schlass",,"49.719165894390","6.091481589924",0,,,""
000160909001,"","Schoenfels, Duerf",,"49.717771170020","6.090038683629",0,,,""
000190607001,"","Direndall",,"49.688432223330","6.089614854381",0,,,""
000190802003,"","Kopstal, Saangen",,"49.668802632353","6.072878316038",0,,,""
000201003001,"","Helmsange, Barriär",,"49.659964755365","6.135648769947",0,,,""
000200802001,"","Heisdorf, Altersheem",,"49.676041394037","6.134925672562",0,,,""
000200802004,"","Heisdorf, Klouster",,"49.674508564433","6.137330893183",0,,,""
000200802002,"","Heisdorf, Bei der Parkmauer",,"49.671171607912","6.135905059421",0,,,""
000160902001,"","Rollingen, Blannenheem",,"49.744524778394","6.112968503205",0,,,""
000160908002,"","Rollingen, Veräinsbau",,"49.741151658299","6.113710218700",0,,,""
000160702001,"","Lintgen, An der Kléck",,"49.714190899647","6.127865840553",0,,,""
000160807003,"","Lorentzweiler, Gare routière",,"49.698348102474","6.140936457114",0,,,""
000160804001,"","Helmdange, Fautelfiels",,"49.694019941310","6.140899340044",0,,,""
000141101005,"","Mertzig, Gemeng",,"49.833249948751","6.005764622326",0,,,""
000141101003,"","Mertzig, Eglise",,"49.831941467658","6.002827403987",0,,,""
000150402005,"","Grosbous, Police",,"49.829851537379","5.968159802793",0,,,""
000150402004,"","Grosbous, Op der Baach",,"49.828211847850","5.966009423481",0,,,""
000150902004,"","Vichten, Gemeng",,"49.804277273018","5.994139846805",0,,,""
000150902006,"","Vichten, Ohligsfeld",,"49.802546186534","6.001975384542",0,,,""
000150902005,"","Vichten, Hemeschbaach",,"49.801453855784","6.007394175118",0,,,""
000160101004,"","Bissen, Kiirch",,"49.787689136691","6.066798284049",0,,,""
000160102002,"","Rouscht",,"49.786458857133","6.092925698300",0,,,""
000160904008,"","Mersch, Mierscherbierg",,"49.755676831013","6.099516847762",0,,,""
000220503003,"","Hellange, Kiirch",,"49.507565409753","6.148432318263",0,,,""
000220503001,"","Hellange, Beteburgerstrooss",,"49.506136547389","6.141939439483",0,,,""
000210701016,"","Remich, Station Viti-Vinicole",,"49.543618433648","6.357241008447",0,,,""
000221401006,"","Schifflange, Millchen",,"49.503753925922","6.000672277243",0,,,""
000220105005,"","Noertzange, Rue Principale",,"49.509834260942","6.060857385517",0,,,""
000220102006,"","Bettembourg, Kiircheplaz",,"49.518319184174","6.097575982714",0,,,""
000220105002,"","Noertzange, Gare routière",,"49.507941305939","6.050470888171",0,,,""
000221106001,"","Roeser, Bei der Uelzecht",,"49.540156289481","6.143548608771",0,,,""
000221001001,"","Ehlange, Am Brill",,"49.545827837418","6.015475098114",0,,,""
000221006001,"","Wickrange, Rumbaach",,"49.540353727291","6.020896415968",0,,,""
