stop_id,stop_name,stop_lat,stop_lon,location_type,parent_station,platform_code
hkir_101001,"Abasár, Béke tér",47.793633,19.992895,1,,
hkir_101001_1,"Abasár, Béke tér",47.793621,19.992884,,hkir_101001,
hkir_101002,"Abasár, Iskola",47.794878,20.003425,1,,
hkir_101002_1,"Abasár, Iskola",47.794878,20.003426,,hkir_101002,
hkir_101003,"Abasár, községháza",47.794304,19.999065,1,,
hkir_101003_1,"Abasár, községháza",47.794375,19.999113,,hkir_101003,
hkir_101003_2,"Abasár, községháza",47.794225,19.998920,,hkir_101003,
hkir_101004,"Abasár, Posta",47.799194,20.001938,1,,
hkir_101004_1,"Abasár, Posta",47.799164,20.001978,,hkir_101004,
hkir_101004_2,"Abasár, Posta",47.799218,20.001909,,hkir_101004,
hkir_101006,"Abasár, Tatármező",47.807186,20.025942,1,,
hkir_101006_1,"Abasár, Tatármező",47.807177,20.025942,,hkir_101006,
hkir_101006_2,"Abasár, Tatármező",47.807200,20.025937,,hkir_101006,
hkir_101007,"Abasár, Tiszti Lakótelep",47.803688,20.010418,1,,
hkir_101007_1,"Abasár, Tiszti Lakótelep",47.803868,20.010895,,hkir_101007,
hkir_101007_2,"Abasár, Tiszti Lakótelep",47.803510,20.009938,,hkir_101007,
hkir_101008,"Abasár, Vörösmarty Mihály utca 35.",47.805607,20.007378,1,,
hkir_101008_1,"Abasár, Vörösmarty Mihály utca 35.",47.805446,20.007369,,hkir_101008,
hkir_101008_2,"Abasár, Vörösmarty Mihály utca 35.",47.805772,20.007383,,hkir_101008,
hkir_101009,"Tatármező, alsó",47.809345,20.036282,1,,
hkir_101009_1,"Tatármező, alsó",47.809328,20.036283,,hkir_101009,
hkir_101009_2,"Tatármező, alsó",47.809365,20.036277,,hkir_101009,
hkir_101010,"Adács, Árpád fejedelem utca",47.693584,19.966743,1,,
hkir_101010_1,"Adács, Árpád fejedelem utca",47.693570,19.966803,,hkir_101010,
hkir_101010_2,"Adács, Árpád fejedelem utca",47.693601,19.966681,,hkir_101010,
hkir_101011,"Adács, Faluközpont",47.690742,19.975225,1,,
hkir_101011_1,"Adács, Faluközpont",47.690863,19.975259,,hkir_101011,
hkir_101011_2,"Adács, Faluközpont",47.690898,19.975289,,hkir_101011,
hkir_101011_3,"Adács, Faluközpont",47.690725,19.974826,,hkir_101011,
hkir_101012,"Adács, Rákóczi Ferenc utca",47.692265,19.981401,1,,
hkir_101012_2,"Adács, Rákóczi Ferenc utca",47.692286,19.981385,,hkir_101012,
hkir_101013,"Adács, Róbert Károly út",47.697670,19.974367,1,,
hkir_101013_1,"Adács, Róbert Károly út",47.697670,19.974334,,hkir_101013,
hkir_101013_2,"Adács, Róbert Károly út",47.697674,19.974394,,hkir_101013,
hkir_101015,"Adács, Telepi iskola",47.688179,19.984304,1,,
hkir_101015_1,"Adács, Telepi iskola",47.688182,19.984333,,hkir_101015,
hkir_101016,"Adács, Temető",47.694847,19.974962,1,,
hkir_101016_1,"Adács, Temető",47.694767,19.974838,,hkir_101016,
hkir_101016_2,"Adács, Temető",47.694929,19.975084,,hkir_101016,
hkir_101017,"Aldebrő, Iskola",47.782730,20.236155,1,,
hkir_101017_1,"Aldebrő, Iskola",47.782604,20.236192,,hkir_101017,
hkir_101017_2,"Aldebrő, Iskola",47.782863,20.236114,,hkir_101017,
hkir_101018,"Aldebrő, községháza",47.788258,20.230150,1,,
hkir_101018_1,"Aldebrő, községháza",47.787935,20.230021,,hkir_101018,
hkir_101018_2,"Aldebrő, községháza",47.788586,20.230279,,hkir_101018,
hkir_101021,"Aldebrő, Újfalu",47.796959,20.227793,1,,
hkir_101021_1,"Aldebrő, Újfalu",47.796676,20.227695,,hkir_101021,
hkir_101021_2,"Aldebrő, Újfalu",47.797251,20.227889,,hkir_101021,
hkir_101022,"Andornaktálya, Iskola",47.858849,20.406754,1,,
hkir_101022_1,"Andornaktálya, Iskola",47.858846,20.406746,,hkir_101022,
hkir_101022_2,"Andornaktálya, Iskola",47.858847,20.406759,,hkir_101022,
hkir_101023,"Andornaktálya, községháza",47.850224,20.410450,1,,
hkir_101023_1,"Andornaktálya, községháza",47.850334,20.410427,,hkir_101023,
hkir_101023_2,"Andornaktálya, községháza",47.850115,20.410472,,hkir_101023,
hkir_101024,"Andornaktálya, szociális otthon",47.838142,20.415604,1,,
hkir_101024_1,"Andornaktálya, szociális otthon",47.838021,20.415667,,hkir_101024,
hkir_101024_2,"Andornaktálya, szociális otthon",47.838262,20.415535,,hkir_101024,
hkir_101026,"Andornaktálya, Tórét",47.864914,20.407003,1,,
hkir_101026_1,"Andornaktálya, Tórét",47.864941,20.406978,,hkir_101026,
hkir_101026_2,"Andornaktálya, Tórét",47.864884,20.407029,,hkir_101026,
hkir_101027,"Andornaktálya, Szent András kápolna",47.844582,20.412256,1,,
hkir_101027_1,"Andornaktálya, Szent András kápolna",47.844487,20.412292,,hkir_101027,
hkir_101027_2,"Andornaktálya, Szent András kápolna",47.844677,20.412220,,hkir_101027,
hkir_101028,"Eger, Olajmezők",47.854282,20.366978,1,,
hkir_101028_1,"Eger, Olajmezők",47.853829,20.366545,,hkir_101028,
hkir_101028_2,"Eger, Olajmezők",47.854737,20.367408,,hkir_101028,
hkir_101029,"Apc, autóbusz-forduló",47.787247,19.707191,1,,
hkir_101029_1,"Apc, autóbusz-forduló",47.787247,19.707188,,hkir_101029,
hkir_101030,"Apc, CsabaCast",47.791900,19.666868,1,,
hkir_101030_1,"Apc, CsabaCast",47.791900,19.666868,,hkir_101030,
hkir_101032,"Apc, Erzsébet tér",47.795422,19.690741,1,,
hkir_101032_1,"Apc, Erzsébet tér",47.795342,19.690712,,hkir_101032,
hkir_101032_2,"Apc, Erzsébet tér",47.795501,19.690776,,hkir_101032,
hkir_101033,"Apc, Petőfi tér",47.793240,19.692402,1,,
hkir_101033_1,"Apc, Petőfi tér",47.793201,19.692153,,hkir_101033,
hkir_101033_2,"Apc, Petőfi tér",47.793339,19.692403,,hkir_101033,
hkir_101033_3,"Apc, Petőfi tér",47.793188,19.692619,,hkir_101033,
hkir_101034,"Apc, Rákóczi Ferenc út 78.",47.789555,19.700087,1,,
hkir_101034_1,"Apc, Rákóczi Ferenc út 78.",47.789536,19.700076,,hkir_101034,
hkir_101034_2,"Apc, Rákóczi Ferenc út 78.",47.789575,19.700089,,hkir_101034,
hkir_101035,Apc-Zagyvaszántó vasútállomás,47.791672,19.668690,1,,
hkir_101035_1,Apc-Zagyvaszántó vasútállomás,47.792149,19.668840,,hkir_101035,
hkir_101035_2,Apc-Zagyvaszántó vasútállomás,47.791194,19.668532,,hkir_101035,
hkir_101037,"Átány, Alvégesi temető",47.616089,20.371960,1,,
hkir_101037_1,"Átány, Alvégesi temető",47.616425,20.371918,,hkir_101037,
hkir_101037_2,"Átány, Alvégesi temető",47.615757,20.371999,,hkir_101037,
hkir_101038,"Átány, átányi elágazás",47.632156,20.327024,1,,
hkir_101038_1,"Átány, átányi elágazás",47.632015,20.326585,,hkir_101038,
hkir_101038_2,"Átány, átányi elágazás",47.632544,20.326990,,hkir_101038,
hkir_101038_3,"Átány, átányi elágazás",47.631917,20.327494,,hkir_101038,
hkir_101039,"Átány, autóbusz-váróterem",47.615181,20.359428,1,,
hkir_101039_1,"Átány, autóbusz-váróterem",47.615011,20.359480,,hkir_101039,
hkir_101040,"Atkár, autóbusz-váróterem",47.721298,19.891319,1,,
hkir_101040_1,"Atkár, autóbusz-váróterem",47.721209,19.891263,,hkir_101040,
hkir_101040_2,"Atkár, autóbusz-váróterem",47.721389,19.891371,,hkir_101040,
hkir_101040_3,"Atkár, autóbusz-váróterem",47.720798,19.890775,,hkir_101040,
hkir_101040_4,"Atkár, autóbusz-váróterem",47.720863,19.891100,,hkir_101040,
hkir_101041,"Atkár, Hevesi tér",47.716709,19.886274,1,,
hkir_101041_1,"Atkár, Hevesi tér",47.716838,19.886298,,hkir_101041,
hkir_101041_2,"Atkár, Hevesi tér",47.716585,19.886246,,hkir_101041,
hkir_101042,"Atkár, Posta",47.716599,19.893286,1,,
hkir_101042_1,"Atkár, Posta",47.716502,19.893341,,hkir_101042,
hkir_101042_2,"Atkár, Posta",47.716694,19.893226,,hkir_101042,
hkir_101043,"Atkár, sertéstelep",47.686817,19.871901,1,,
hkir_101043_1,"Atkár, sertéstelep",47.686673,19.871808,,hkir_101043,
hkir_101043_2,"Atkár, sertéstelep",47.686962,19.871989,,hkir_101043,
hkir_101044,"Hort, Ilonatelep",47.719196,19.844604,1,,
hkir_101044_1,"Hort, Ilonatelep",47.719046,19.843921,,hkir_101044,
hkir_101044_2,"Hort, Ilonatelep",47.719353,19.845281,,hkir_101044,
hkir_101046,"Balaton, alsó",48.086918,20.313519,1,,
hkir_101046_1,"Balaton, alsó",48.086851,20.313589,,hkir_101046,
hkir_101046_2,"Balaton, alsó",48.086994,20.313443,,hkir_101046,
hkir_101047,"Balaton, autóbusz-váróterem",48.092327,20.306683,1,,
hkir_101047_1,"Balaton, autóbusz-váróterem",48.092329,20.306651,,hkir_101047,
hkir_101048,"Balaton, felső",48.100998,20.306057,1,,
hkir_101048_1,"Balaton, felső",48.101073,20.306013,,hkir_101048,
hkir_101048_2,"Balaton, felső",48.100935,20.306097,,hkir_101048,
hkir_101049,"Balaton, Kossuth Lajos út 163.",48.105827,20.303631,1,,
hkir_101049_1,"Balaton, Kossuth Lajos út 163.",48.105844,20.303640,,hkir_101049,
hkir_101049_2,"Balaton, Kossuth Lajos út 163.",48.105823,20.303618,,hkir_101049,
hkir_101051,"Bátor, bátori elágazás",47.967579,20.266609,1,,
hkir_101051_1,"Bátor, bátori elágazás",47.967596,20.266551,,hkir_101051,
hkir_101051_2,"Bátor, bátori elágazás",47.967564,20.266662,,hkir_101051,
hkir_101052,"Bátor, hevesaranyosi elágazás",47.990898,20.265636,1,,
hkir_101052_1,"Bátor, hevesaranyosi elágazás",47.990711,20.266368,,hkir_101052,
hkir_101052_2,"Bátor, hevesaranyosi elágazás",47.990954,20.265883,,hkir_101052,
hkir_101052_3,"Bátor, hevesaranyosi elágazás",47.990870,20.265257,,hkir_101052,
hkir_101052_4,"Bátor, hevesaranyosi elágazás",47.990828,20.265454,,hkir_101052,
hkir_101053,"Bátor, Hunyadi János út 58.",47.993885,20.258554,1,,
hkir_101053_1,"Bátor, Hunyadi János út 58.",47.993897,20.258579,,hkir_101053,
hkir_101053_2,"Bátor, Hunyadi János út 58.",47.993880,20.258525,,hkir_101053,
hkir_101054,"Bátor, Kisbátori tanya",48.002468,20.271397,1,,
hkir_101054_1,"Bátor, Kisbátori tanya",48.002596,20.271371,,hkir_101054,
hkir_101054_2,"Bátor, Kisbátori tanya",48.002344,20.271416,,hkir_101054,
hkir_101055,"Bükkszék, Nagyaszói tanya",47.984116,20.229071,1,,
hkir_101055_1,"Bükkszék, Nagyaszói tanya",47.984137,20.229081,,hkir_101055,
hkir_101055_2,"Bükkszék, Nagyaszói tanya",47.984100,20.229056,,hkir_101055,
hkir_101056,"Bekölce, Akác úti átjáró",48.079582,20.266861,1,,
hkir_101056_1,"Bekölce, Akác úti átjáró",48.079581,20.266747,,hkir_101056,
hkir_101056_2,"Bekölce, Akác úti átjáró",48.079590,20.266969,,hkir_101056,
hkir_101057,"Bekölce, autóbusz-forduló",48.080235,20.254850,1,,
hkir_101057_1,"Bekölce, autóbusz-forduló",48.080287,20.254727,,hkir_101057,
hkir_101058,"Bekölce, Központ",48.079765,20.274122,1,,
hkir_101058_1,"Bekölce, Központ",48.080014,20.273174,,hkir_101058,
hkir_101058_2,"Bekölce, Központ",48.079340,20.274107,,hkir_101058,
hkir_101058_3,"Bekölce, Központ",48.079954,20.275077,,hkir_101058,
hkir_101059,"Bekölce, Lovastanya",48.081062,20.251841,1,,
hkir_101059_1,"Bekölce, Lovastanya",48.081145,20.251696,,hkir_101059,
hkir_101059_2,"Bekölce, Lovastanya",48.080988,20.251982,,hkir_101059,
hkir_101061,"Nyíregyháza, Alsóbadúr autóbusz-forduló",47.877800,21.653100,1,,
hkir_101061_1,"Nyíregyháza, Alsóbadúr autóbusz-forduló",47.877800,21.653100,,hkir_101061,
hkir_101062,"Bélapátfalva, Egészségház",48.059311,20.353168,1,,
hkir_101062_1,"Bélapátfalva, Egészségház",48.059784,20.353355,,hkir_101062,
hkir_101062_2,"Bélapátfalva, Egészségház",48.058845,20.352977,,hkir_101062,
hkir_101063,"Bélapátfalva, Ipari Park",48.067524,20.356321,1,,
hkir_101063_1,"Bélapátfalva, Ipari Park",48.068335,20.356646,,hkir_101063,
hkir_101063_2,"Bélapátfalva, Ipari Park",48.066724,20.355994,,hkir_101063,
hkir_101064,"Bélapátfalva, Május 1. út 4.",48.053074,20.348265,1,,
hkir_101064_1,"Bélapátfalva, Május 1. út 4.",48.053110,20.348321,,hkir_101064,
hkir_101064_2,"Bélapátfalva, Május 1. út 4.",48.053056,20.348232,,hkir_101064,
hkir_101066,"Bélapátfalva, városháza",48.054951,20.350468,1,,
hkir_101066_1,"Bélapátfalva, városháza",48.055032,20.350607,,hkir_101066,
hkir_101066_2,"Bélapátfalva, városháza",48.054878,20.350326,,hkir_101066,
hkir_101067,"Bélapátfalva, Vásártér",48.049072,20.343941,1,,
hkir_101067_1,"Bélapátfalva, Vásártér",48.049352,20.344525,,hkir_101067,
hkir_101067_2,"Bélapátfalva, Vásártér",48.048801,20.343353,,hkir_101067,
hkir_101068,"Bélapátfalva, vasútállomás elágazás",48.056175,20.343653,1,,
hkir_101068_1,"Bélapátfalva, vasútállomás elágazás",48.056164,20.343651,,hkir_101068,
hkir_101068_2,"Bélapátfalva, vasútállomás elágazás",48.056235,20.343720,,hkir_101068,
hkir_101069,"Besenyőtelek, Kisbolt",47.706585,20.426380,1,,
hkir_101069_1,"Besenyőtelek, Kisbolt",47.706118,20.426588,,hkir_101069,
hkir_101069_2,"Besenyőtelek, Kisbolt",47.707056,20.426171,,hkir_101069,
hkir_101070,"Besenyőtelek, Központ",47.700996,20.427883,1,,
hkir_101070_1,"Besenyőtelek, Központ",47.700766,20.427857,,hkir_101070,
hkir_101070_2,"Besenyőtelek, Központ",47.701226,20.427911,,hkir_101070,
hkir_101071,"Besenyőtelek, poroszlói elágazás",47.694679,20.433378,1,,
hkir_101071_1,"Besenyőtelek, poroszlói elágazás",47.694478,20.433434,,hkir_101071,
hkir_101071_2,"Besenyőtelek, poroszlói elágazás",47.694888,20.433321,,hkir_101071,
hkir_101073,"Besenyőtelek, Temető",47.694489,20.434439,1,,
hkir_101073_1,"Besenyőtelek, Temető",47.694504,20.434413,,hkir_101073,
hkir_101073_2,"Besenyőtelek, Temető",47.694504,20.434413,,hkir_101073,
hkir_101074,"Boconád, Béke út",47.639725,20.196957,1,,
hkir_101074_1,"Boconád, Béke út",47.639719,20.196913,,hkir_101074,
hkir_101074_2,"Boconád, Béke út",47.639736,20.196998,,hkir_101074,
hkir_101075,"Boconád, községháza",47.642914,20.187248,1,,
hkir_101075_1,"Boconád, községháza",47.642877,20.187580,,hkir_101075,
hkir_101075_2,"Boconád, községháza",47.642954,20.186915,,hkir_101075,
hkir_101076,"Heves(Alatka), Bernáthegy",47.640186,20.246592,1,,
hkir_101076_1,"Heves(Alatka), Bernáthegy",47.640300,20.246668,,hkir_101076,
hkir_101076_2,"Heves(Alatka), Bernáthegy",47.640080,20.246513,,hkir_101076,
hkir_101077,"Heves (Alatka), Honvédség",47.665653,20.264181,1,,
hkir_101077_1,"Heves (Alatka), Honvédség",47.665565,20.264128,,hkir_101077,
hkir_101077_2,"Heves (Alatka), Honvédség",47.665744,20.264233,,hkir_101077,
hkir_101078,"Heves (Alatka), régi iskola",47.653278,20.256189,1,,
hkir_101078_1,"Heves (Alatka), régi iskola",47.653292,20.256161,,hkir_101078,
hkir_101078_2,"Heves (Alatka), régi iskola",47.653273,20.256214,,hkir_101078,
hkir_101079,"Heves (Alatka), szövetkezeti bolt",47.645714,20.251886,1,,
hkir_101079_1,"Heves (Alatka), szövetkezeti bolt",47.645650,20.251827,,hkir_101079,
hkir_101079_2,"Heves (Alatka), szövetkezeti bolt",47.645786,20.251945,,hkir_101079,
hkir_101080,"Bodony, Italbolt",47.942780,20.022984,1,,
hkir_101080_1,"Bodony, Italbolt",47.942781,20.022982,,hkir_101080,
hkir_101081,"Bodony, Újtelep",47.938740,20.023903,1,,
hkir_101081_1,"Bodony, Újtelep",47.938822,20.023904,,hkir_101081,
hkir_101081_2,"Bodony, Újtelep",47.938664,20.023897,,hkir_101081,
hkir_101082,"Boldog, Bartók Béla út",47.601646,19.677546,1,,
hkir_101082_1,"Boldog, Bartók Béla út",47.601646,19.677543,,hkir_101082,
hkir_101083,"Boldog, Bonta bíró major",47.617321,19.681957,1,,
hkir_101083_1,"Boldog, Bonta bíró major",47.617179,19.681994,,hkir_101083,
hkir_101083_2,"Boldog, Bonta bíró major",47.617463,19.681919,,hkir_101083,
hkir_101084,"Boldog, Hatvani út",47.612598,19.683689,1,,
hkir_101084_1,"Boldog, Hatvani út",47.612438,19.683732,,hkir_101084,
hkir_101084_2,"Boldog, Hatvani út",47.612757,19.683643,,hkir_101084,
hkir_101085,"Boldog, Kossuth út - művelődési ház",47.602692,19.693998,1,,
hkir_101085_1,"Boldog, Kossuth út - művelődési ház",47.602678,19.693977,,hkir_101085,
hkir_101085_2,"Boldog, Kossuth út - művelődési ház",47.602708,19.694018,,hkir_101085,
hkir_101086,"Boldog, Liget út",47.606602,19.688593,1,,
hkir_101086_1,"Boldog, Liget út",47.606594,19.688580,,hkir_101086,
hkir_101086_2,"Boldog, Liget út",47.606607,19.688600,,hkir_101086,
hkir_101087,"Boldog, Sportpálya",47.598133,19.687538,1,,
hkir_101087_1,"Boldog, Sportpálya",47.598284,19.686886,,hkir_101087,
hkir_101087_2,"Boldog, Sportpálya",47.597983,19.688184,,hkir_101087,
hkir_101088,"Boldog, Tabán út",47.598091,19.692724,1,,
hkir_101088_1,"Boldog, Tabán út",47.598083,19.692555,,hkir_101088,
hkir_101088_2,"Boldog, Tabán út",47.598098,19.692891,,hkir_101088,
hkir_101090,"Bükkszék, Camping",47.993389,20.181480,1,,
hkir_101090_1,"Bükkszék, Camping",47.993647,20.181797,,hkir_101090,
hkir_101090_2,"Bükkszék, Camping",47.993142,20.181159,,hkir_101090,
hkir_101091,"Bükkszék, felső bejárati út",47.999126,20.183210,1,,
hkir_101091_1,"Bükkszék, felső bejárati út",47.999120,20.183680,,hkir_101091,
hkir_101091_2,"Bükkszék, felső bejárati út",47.999084,20.182812,,hkir_101091,
hkir_101092,"Bükkszék, Gyógyfürdő",47.993427,20.173279,1,,
hkir_101092_1,"Bükkszék, Gyógyfürdő",47.993430,20.173277,,hkir_101092,
hkir_101094,"Bükkszék, községháza",47.988289,20.174927,1,,
hkir_101094_1,"Bükkszék, községháza",47.988461,20.174894,,hkir_101094,
hkir_101094_2,"Bükkszék, községháza",47.988125,20.174953,,hkir_101094,
hkir_101097,"Bükkszenterzsébet, autóbusz-váróterem",48.055218,20.165169,1,,
hkir_101097_1,"Bükkszenterzsébet, autóbusz-váróterem",48.055234,20.165088,,hkir_101097,
hkir_101097_2,"Bükkszenterzsébet, autóbusz-váróterem",48.055203,20.165244,,hkir_101097,
hkir_101098,"Bükkszenterzsébet, Daracs patak",48.051338,20.155828,1,,
hkir_101098_1,"Bükkszenterzsébet, Daracs patak",48.051179,20.155564,,hkir_101098,
hkir_101098_2,"Bükkszenterzsébet, Daracs patak",48.051500,20.156086,,hkir_101098,
hkir_101100,"Nyíregyháza, Antalbokor autóbusz-forduló",47.971100,21.648200,1,,
hkir_101100_1,"Nyíregyháza, Antalbokor autóbusz-forduló",47.971100,21.648200,,hkir_101100,
hkir_101101,Váraszói elágazás,48.043800,20.136204,1,,
hkir_101101_1,Váraszói elágazás,48.043818,20.136183,,hkir_101101,
hkir_101101_2,Váraszói elágazás,48.043785,20.136217,,hkir_101101,
hkir_101102,Bélapátfalvai elágazás,48.059006,20.329353,1,,
hkir_101102_1,Bélapátfalvai elágazás,48.059209,20.329050,,hkir_101102,
hkir_101102_2,Bélapátfalvai elágazás,48.059068,20.329778,,hkir_101102,
hkir_101102_3,Bélapátfalvai elágazás,48.058754,20.329226,,hkir_101102,
hkir_101103,"Bükkszentmárton, Rákóczi út 39.",48.071171,20.329103,1,,
hkir_101103_1,"Bükkszentmárton, Rákóczi út 39.",48.071210,20.329238,,hkir_101103,
hkir_101103_2,"Bükkszentmárton, Rákóczi út 39.",48.071143,20.328963,,hkir_101103,
hkir_101104,Bükkszentmártoni elágazás,48.068771,20.322178,1,,
hkir_101104_1,Bükkszentmártoni elágazás,48.069006,20.321682,,hkir_101104,
hkir_101104_2,Bükkszentmártoni elágazás,48.068267,20.322329,,hkir_101104,
hkir_101104_3,Bükkszentmártoni elágazás,48.069061,20.322515,,hkir_101104,
hkir_101106,"Csány, autóbusz-forduló",47.649925,19.830458,1,,
hkir_101106_1,"Csány, autóbusz-forduló",47.649952,19.830545,,hkir_101106,
hkir_101106_2,"Csány, autóbusz-forduló",47.649899,19.830367,,hkir_101106,
hkir_101107,"Csány, Hatvani út",47.646878,19.811679,1,,
hkir_101107_1,"Csány, Hatvani út",47.646861,19.811728,,hkir_101107,
hkir_101107_2,"Csány, Hatvani út",47.646896,19.811632,,hkir_101107,
hkir_101108,"Csány, Nagy út",47.650383,19.822485,1,,
hkir_101108_1,"Csány, Nagy út",47.650166,19.823136,,hkir_101108,
hkir_101108_2,"Csány, Nagy út",47.650606,19.821830,,hkir_101108,
hkir_101109,"Demjén, Albert major",47.809029,20.340075,1,,
hkir_101109_1,"Demjén, Albert major",47.809134,20.340005,,hkir_101109,
hkir_101109_2,"Demjén, Albert major",47.808933,20.340143,,hkir_101109,
hkir_101110,"Demjén, Faluszéle",47.820480,20.333855,1,,
hkir_101110_1,"Demjén, Faluszéle",47.820261,20.333940,,hkir_101110,
hkir_101110_2,"Demjén, Faluszéle",47.820708,20.333768,,hkir_101110,
hkir_101111,"Demjén, Központ",47.829559,20.333355,1,,
hkir_101111_1,"Demjén, Központ",47.829609,20.333438,,hkir_101111,
hkir_101111_2,"Demjén, Központ",47.829515,20.333270,,hkir_101111,
hkir_101112,"Demjén, Petőfi út 2.",47.834572,20.335798,1,,
hkir_101112_1,"Demjén, Petőfi út 2.",47.834206,20.335705,,hkir_101112,
hkir_101112_2,"Demjén, Petőfi út 2.",47.834906,20.335856,,hkir_101112,
hkir_101113,"Demjén, Széchenyi út 68.",47.825451,20.333170,1,,
hkir_101113_1,"Demjén, Széchenyi út 68.",47.825218,20.333174,,hkir_101113,
hkir_101113_2,"Demjén, Széchenyi út 68.",47.825692,20.333163,,hkir_101113,
hkir_101115,"Demjén, Termál-völgy",47.837757,20.336380,1,,
hkir_101115_1,"Demjén, Termál-völgy",47.837755,20.336324,,hkir_101115,
hkir_101115_2,"Demjén, Termál-völgy",47.837763,20.336431,,hkir_101115,
hkir_101116,"Demjén, Tófürdő",47.816690,20.336920,1,,
hkir_101116_1,"Demjén, Tófürdő",47.816680,20.336891,,hkir_101116,
hkir_101116_2,"Demjén, Tófürdő",47.816900,20.336681,,hkir_101116,
hkir_101117,"Detk, ÁFÉSZ",47.745975,20.096699,1,,
hkir_101117_1,"Detk, ÁFÉSZ",47.745921,20.096618,,hkir_101117,
hkir_101117_2,"Detk, ÁFÉSZ",47.746034,20.096776,,hkir_101117,
hkir_101118,"Detk, bejárati út",47.741082,20.086851,1,,
hkir_101118_1,"Detk, bejárati út",47.740403,20.086535,,hkir_101118,
hkir_101118_2,"Detk, bejárati út",47.740494,20.086531,,hkir_101118,
hkir_101118_3,"Detk, bejárati út",47.741721,20.087070,,hkir_101118,
hkir_101118_4,"Detk, bejárati út",47.741710,20.087269,,hkir_101118,
hkir_101119,"Detk, Posta",47.751095,20.096224,1,,
hkir_101119_1,"Detk, Posta",47.751048,20.096221,,hkir_101119,
hkir_101119_2,"Detk, Posta",47.751151,20.096223,,hkir_101119,
hkir_101120,"Detk, Sport utca",47.756374,20.091095,1,,
hkir_101120_1,"Detk, Sport utca",47.755945,20.091148,,hkir_101120,
hkir_101120_2,"Detk, Sport utca",47.756808,20.091037,,hkir_101120,
hkir_101122,"Domoszló, Benzinkút",47.827610,20.110289,1,,
hkir_101122_1,"Domoszló, Benzinkút",47.827592,20.110277,,hkir_101122,
hkir_101122_2,"Domoszló, Benzinkút",47.827630,20.110296,,hkir_101122,
hkir_101123,"Domoszló, Központ",47.826309,20.115902,1,,
hkir_101123_1,"Domoszló, Központ",47.826299,20.115916,,hkir_101123,
hkir_101123_2,"Domoszló, Központ",47.826325,20.115886,,hkir_101123,
hkir_101124,"Domoszló, Lőtér",47.831223,20.125217,1,,
hkir_101124_1,"Domoszló, Lőtér",47.831215,20.125237,,hkir_101124,
hkir_101124_2,"Domoszló, Lőtér",47.831234,20.125196,,hkir_101124,
hkir_101126,"Dormánd, autóbusz-váróterem",47.719555,20.419456,1,,
hkir_101126_1,"Dormánd, autóbusz-váróterem",47.719403,20.419532,,hkir_101126,
hkir_101126_2,"Dormánd, autóbusz-váróterem",47.719708,20.419380,,hkir_101126,
hkir_101127,"Dormánd, hevesi útelágazás",47.721001,20.417154,1,,
hkir_101127_1,"Dormánd, hevesi útelágazás",47.721058,20.417234,,hkir_101127,
hkir_101127_2,"Dormánd, hevesi útelágazás",47.720950,20.417071,,hkir_101127,
hkir_101129,"Dormánd, 31-es út 2-es kilométerkő",47.686729,20.388901,1,,
hkir_101129_1,"Dormánd, 31-es út 2-es kilométerkő",47.686689,20.388816,,hkir_101129,
hkir_101129_2,"Dormánd, 31-es út 2-es kilométerkő",47.686777,20.388982,,hkir_101129,
hkir_101130,"Ecséd, autóbusz-forduló",47.739372,19.768690,1,,
hkir_101130_1,"Ecséd, autóbusz-forduló",47.739451,19.768681,,hkir_101130,
hkir_101130_2,"Ecséd, autóbusz-forduló",47.739293,19.768692,,hkir_101130,
hkir_101131,"Ecséd, Hársfa utca",47.733719,19.761618,1,,
hkir_101131_1,"Ecséd, Hársfa utca",47.733720,19.761615,,hkir_101131,
hkir_101132,"Ecséd, községháza",47.733150,19.771946,1,,
hkir_101132_1,"Ecséd, községháza",47.733315,19.771903,,hkir_101132,
hkir_101132_2,"Ecséd, községháza",47.732992,19.771981,,hkir_101132,
hkir_101133,"Ecséd, Szabadság utca 55.",47.727295,19.773407,1,,
hkir_101133_1,"Ecséd, Szabadság utca 55.",47.727296,19.773416,,hkir_101133,
hkir_101133_2,"Ecséd, Szabadság utca 55.",47.727297,19.773389,,hkir_101133,
hkir_101134,"Ecséd, Táncsics Mihály út",47.723217,19.776716,1,,
hkir_101134_1,"Ecséd, Táncsics Mihály út",47.723191,19.776749,,hkir_101134,
hkir_101134_2,"Ecséd, Táncsics Mihály út",47.723247,19.776677,,hkir_101134,
hkir_101136,"Ecséd, Zrínyi Miklós út",47.730637,19.763540,1,,
hkir_101136_1,"Ecséd, Zrínyi Miklós út",47.730640,19.763536,,hkir_101136,
hkir_101138,"Eger, AGROKER",47.869315,20.404124,1,,
hkir_101138_1,"Eger, AGROKER",47.869300,20.404180,,hkir_101138,
hkir_101139,"Eger, Alvégi út",47.937780,20.365262,1,,
hkir_101139_1,"Eger, Alvégi út",47.938081,20.365283,,hkir_101139,
hkir_101139_2,"Eger, Alvégi út",47.937520,20.365520,,hkir_101139,
hkir_101140,"Eger, Ankli József út",47.905458,20.357335,1,,
hkir_101140_1,"Eger, Ankli József út",47.905458,20.357335,,hkir_101140,
hkir_101146,"Eger, Bethlen Gábor út",47.896477,20.364241,1,,
hkir_101146_1,"Eger, Bethlen Gábor út",47.896477,20.364241,,hkir_101146,
hkir_101147,"Eger, Cifrakapu út",47.921262,20.370671,1,,
hkir_101147_1,"Eger, Cifrakapu út",47.921178,20.370624,,hkir_101147,
hkir_101148,"Eger, Csokonai út",47.905577,20.359928,1,,
hkir_101148_1,"Eger, Csokonai út",47.905600,20.359873,,hkir_101148,
hkir_101148_2,"Eger, Csokonai út",47.905459,20.360040,,hkir_101148,
hkir_101150,"Eger, Agria Park",47.899155,20.367361,1,,
hkir_101150_1,"Eger, Agria Park",47.899870,20.367327,,hkir_101150,
hkir_101150_2,"Eger, Agria Park",47.898408,20.367439,,hkir_101150,
hkir_101150_3,"Eger, Agria Park",47.899063,20.368131,,hkir_101150,
hkir_101151,"Eger, Almár vasúti megállóhely",47.955566,20.357586,1,,
hkir_101151_1,"Eger, Almár vasúti megállóhely",47.955917,20.357362,,hkir_101151,
hkir_101151_2,"Eger, Almár vasúti megállóhely",47.955221,20.357808,,hkir_101151,
hkir_101152,"Eger, Aradi út",47.879596,20.381815,1,,
hkir_101152_1,"Eger, Aradi út",47.878922,20.381809,,hkir_101152,
hkir_101152_2,"Eger, Aradi út",47.880262,20.381823,,hkir_101152,
hkir_101153,"Eger, autóbusz-állomás",47.900513,20.370893,1,,
hkir_101153_0,"Eger, autóbusz-állomás",47.900513,20.370893,,hkir_101153,
hkir_101153_1,"Eger, autóbusz-állomás",47.900594,20.371027,,hkir_101153,1
hkir_101153_10,"Eger, autóbusz-állomás",47.900344,20.371170,,hkir_101153,10
hkir_101153_11,"Eger, autóbusz-állomás",47.900490,20.371027,,hkir_101153,11
hkir_101153_12,"Eger, autóbusz-állomás",47.900298,20.370970,,hkir_101153,12
hkir_101153_13,"Eger, autóbusz-állomás",47.900624,20.370800,,hkir_101153,13
hkir_101153_14,"Eger, autóbusz-állomás",47.900459,20.370845,,hkir_101153,14
hkir_101153_15,"Eger, autóbusz-állomás",47.899554,20.370926,,hkir_101153,15
hkir_101153_16,"Eger, autóbusz-állomás",47.899696,20.370883,,hkir_101153,16
hkir_101153_17,"Eger, autóbusz-állomás",47.900505,20.370673,,hkir_101153,17
hkir_101153_18,"Eger, autóbusz-állomás",47.901292,20.370541,,hkir_101153,18
hkir_101153_2,"Eger, autóbusz-állomás",47.900731,20.371156,,hkir_101153,2
hkir_101153_3,"Eger, autóbusz-állomás",47.900774,20.371337,,hkir_101153,3
hkir_101153_4,"Eger, autóbusz-állomás",47.900753,20.371543,,hkir_101153,4
hkir_101153_5,"Eger, autóbusz-állomás",47.900666,20.371676,,hkir_101153,5
hkir_101153_6,"Eger, autóbusz-állomás",47.900526,20.371741,,hkir_101153,6
hkir_101153_7,"Eger, autóbusz-állomás",47.900400,20.371692,,hkir_101153,7
hkir_101153_8,"Eger, autóbusz-állomás",47.900323,20.371567,,hkir_101153,8
hkir_101153_9,"Eger, autóbusz-állomás",47.900300,20.371379,,hkir_101153,9
hkir_101153_99,"Eger, autóbusz-állomás",47.900513,20.370893,,hkir_101153,
hkir_101154,"Eger, Baktai út",47.905810,20.363376,1,,
hkir_101154_1,"Eger, Baktai út",47.906079,20.363373,,hkir_101154,
hkir_101154_2,"Eger, Baktai út",47.905540,20.363695,,hkir_101154,
hkir_101155,"Eger, Bartakovics út",47.904324,20.366512,1,,
hkir_101155_1,"Eger, Bartakovics út",47.904756,20.366611,,hkir_101155,
hkir_101155_2,"Eger, Bartakovics út",47.903904,20.366495,,hkir_101155,
hkir_101156,"Eger, Bazilika",47.899024,20.371365,1,,
hkir_101156_1,"Eger, Bazilika",47.898907,20.372463,,hkir_101156,
hkir_101156_2,"Eger, Bazilika",47.899141,20.370267,,hkir_101156,
hkir_101157,"Eger, Bervai út",47.949631,20.375614,1,,
hkir_101157_1,"Eger, Bervai út",47.949270,20.375700,,hkir_101157,
hkir_101157_2,"Eger, Bervai út",47.949595,20.375609,,hkir_101157,
hkir_101158,"Eger, Csomós-tanya",47.916782,20.412851,1,,
hkir_101158_1,"Eger, Csomós-tanya",47.916766,20.413175,,hkir_101158,
hkir_101158_2,"Eger, Csomós-tanya",47.916802,20.412527,,hkir_101158,
hkir_101159,"Eger, Dobó Gimnázium",47.903759,20.373017,1,,
hkir_101159_1,"Eger, Dobó Gimnázium",47.904095,20.372894,,hkir_101159,
hkir_101159_2,"Eger, Dobó Gimnázium",47.903441,20.373090,,hkir_101159,
hkir_101161,"Eger, Egerszalóki út",47.889786,20.369923,1,,
hkir_101161_2,"Eger, Egerszalóki út",47.889764,20.369961,,hkir_101161,
hkir_101162,"Eger, egerszóláti elágazás",47.886330,20.350492,1,,
hkir_101162_1,"Eger, egerszóláti elágazás",47.886490,20.351094,,hkir_101162,
hkir_101162_2,"Eger, egerszóláti elágazás",47.886371,20.350753,,hkir_101162,
hkir_101163,"Eger, Eger-vár vasúti megállóhely",47.908264,20.381889,1,,
hkir_101163_1,"Eger, Eger-vár vasúti megállóhely",47.908410,20.382259,,hkir_101163,
hkir_101163_2,"Eger, Eger-vár vasúti megállóhely",47.908128,20.381517,,hkir_101163,
hkir_101164,"Eger, Egészségház utca",47.899381,20.379561,1,,
hkir_101164_1,"Eger, Egészségház utca",47.899383,20.379607,,hkir_101164,
hkir_101165,"Eger, Egyetem",47.899376,20.375633,1,,
hkir_101165_1,"Eger, Egyetem",47.899437,20.375945,,hkir_101165,
hkir_101165_2,"Eger, Egyetem",47.899324,20.375320,,hkir_101165,
hkir_101166,"Eger, Erzsébet - völgy",47.875565,20.401213,1,,
hkir_101166_1,"Eger, Erzsébet - völgy",47.875556,20.401151,,hkir_101166,
hkir_101166_2,"Eger, Erzsébet - völgy",47.875543,20.401273,,hkir_101166,
hkir_101167,"Eger (Felnémet), Egri út",47.927517,20.368563,1,,
hkir_101167_1,"Eger (Felnémet), Egri út",47.927659,20.368707,,hkir_101167,
hkir_101167_2,"Eger (Felnémet), Egri út",47.927295,20.368478,,hkir_101167,
hkir_101168,"Eger (Felnémet), Kovács Jakab út",47.940945,20.365436,1,,
hkir_101168_1,"Eger (Felnémet), Kovács Jakab út",47.940808,20.365536,,hkir_101168,
hkir_101168_2,"Eger (Felnémet), Kovács Jakab út",47.941000,20.365345,,hkir_101168,
hkir_101169,"Eger (Felnémet), Sánc út",47.941566,20.375189,1,,
hkir_101169_1,"Eger (Felnémet), Sánc út",47.941754,20.375497,,hkir_101169,
hkir_101169_2,"Eger (Felnémet), Sánc út",47.941386,20.374880,,hkir_101169,
hkir_101170,"Eger (Felnémet), Tárkányi út",47.939114,20.372086,1,,
hkir_101170_1,"Eger (Felnémet), Tárkányi út",47.939402,20.372510,,hkir_101170,
hkir_101170_2,"Eger (Felnémet), Tárkányi út",47.938832,20.371660,,hkir_101170,
hkir_101171,"Eger (Felnémet), felsőtárkányi elágazás",47.934479,20.367924,1,,
hkir_101171_1,"Eger (Felnémet), felsőtárkányi elágazás",47.933922,20.368087,,hkir_101171,
hkir_101171_2,"Eger (Felnémet), felsőtárkányi elágazás",47.935043,20.367757,,hkir_101171,
hkir_101172,"Eger, Felsőváros",47.920383,20.373186,1,,
hkir_101172_1,"Eger, Felsőváros",47.920857,20.372649,,hkir_101172,
hkir_101172_2,"Eger, Felsőváros",47.919901,20.373726,,hkir_101172,
hkir_101174,"Eger, Galagonyás utca",47.887177,20.380664,1,,
hkir_101174_1,"Eger, Galagonyás utca",47.886209,20.380722,,hkir_101174,
hkir_101174_2,"Eger, Galagonyás utca",47.888244,20.380581,,hkir_101174,
hkir_101175,"Eger, Gárdonyi ház",47.906010,20.381140,1,,
hkir_101175_1,"Eger, Gárdonyi ház",47.906116,20.381201,,hkir_101175,
hkir_101175_2,"Eger, Gárdonyi ház",47.905909,20.381079,,hkir_101175,
hkir_101176,"Eger, Garzonház",47.912052,20.370314,1,,
hkir_101176_1,"Eger, Garzonház",47.912758,20.370291,,hkir_101176,
hkir_101176_2,"Eger, Garzonház",47.911355,20.370333,,hkir_101176,
hkir_101177,"Eger, Hadnagy utca",47.895457,20.386857,1,,
hkir_101177_1,"Eger, Hadnagy utca",47.894925,20.388067,,hkir_101177,
hkir_101177_2,"Eger, Hadnagy utca",47.895367,20.385554,,hkir_101177,
hkir_101177_3,"Eger, Hadnagy utca",47.896080,20.386950,,hkir_101177,
hkir_101178,"Eger, Homok utca",47.891579,20.391804,1,,
hkir_101178_1,"Eger, Homok utca",47.891513,20.391852,,hkir_101178,
hkir_101178_2,"Eger, Homok utca",47.891645,20.391758,,hkir_101178,
hkir_101179,"Eger, Hőközpont",47.914427,20.372395,1,,
hkir_101179_1,"Eger, Hőközpont",47.914645,20.371088,,hkir_101179,
hkir_101179_2,"Eger, Hőközpont",47.913931,20.372559,,hkir_101179,
hkir_101179_3,"Eger, Hőközpont",47.914712,20.373693,,hkir_101179,
hkir_101180,"Eger, Ipari park",47.872011,20.398158,1,,
hkir_101180_1,"Eger, Ipari park",47.872027,20.398377,,hkir_101180,
hkir_101180_2,"Eger, Ipari park",47.871995,20.397939,,hkir_101180,
hkir_101181,"Eger, Keverőtelep",47.915451,20.346973,1,,
hkir_101181_1,"Eger, Keverőtelep",47.915651,20.346513,,hkir_101181,
hkir_101181_2,"Eger, Keverőtelep",47.915256,20.347427,,hkir_101181,
hkir_101182,"Eger, Kisasszony temető",47.908249,20.365599,1,,
hkir_101182_1,"Eger, Kisasszony temető",47.907793,20.366414,,hkir_101182,
hkir_101182_2,"Eger, Kisasszony temető",47.907910,20.366128,,hkir_101182,
hkir_101182_3,"Eger, Kisasszony temető",47.908607,20.364715,,hkir_101182,
hkir_101182_4,"Eger, Kisasszony temető",47.908772,20.364514,,hkir_101182,
hkir_101183,"Eger, Kistályai út",47.868954,20.404974,1,,
hkir_101183_1,"Eger, Kistályai út",47.868781,20.404958,,hkir_101183,
hkir_101183_2,"Eger, Kistályai út",47.869129,20.404989,,hkir_101183,
hkir_101185,"Eger, Koháry út",47.893593,20.370869,1,,
hkir_101185_1,"Eger, Koháry út",47.893480,20.370849,,hkir_101185,
hkir_101185_2,"Eger, Koháry út",47.893713,20.370887,,hkir_101185,
hkir_101187,"Eger, Kővágó tér",47.914951,20.369928,1,,
hkir_101187_1,"Eger, Kővágó tér",47.915530,20.369973,,hkir_101187,
hkir_101187_2,"Eger, Kővágó tér",47.914382,20.369881,,hkir_101187,
hkir_101190,"Eger, Lidl Áruház",47.870525,20.381795,1,,
hkir_101190_1,"Eger, Lidl Áruház",47.870525,20.381795,,hkir_101190,
hkir_101191,"Eger, Losonczy - völgy",47.878021,20.400230,1,,
hkir_101191_1,"Eger, Losonczy - völgy",47.877838,20.400207,,hkir_101191,
hkir_101191_2,"Eger, Losonczy - völgy",47.878209,20.400254,,hkir_101191,
hkir_101192,"Eger, Lovas tanya",47.912685,20.406990,1,,
hkir_101192_1,"Eger, Lovas tanya",47.912694,20.407018,,hkir_101192,
hkir_101192_2,"Eger, Lovas tanya",47.912684,20.406959,,hkir_101192,
hkir_101193,"Eger, Malom út",47.909967,20.372680,1,,
hkir_101193_1,"Eger, Malom út",47.910601,20.372963,,hkir_101193,
hkir_101193_2,"Eger, Malom út",47.909359,20.372409,,hkir_101193,
hkir_101193_3,"Eger, Malom út",47.909460,20.373370,,hkir_101193,
hkir_101196,"Eger, Mester utca",47.910389,20.357553,1,,
hkir_101196_1,"Eger, Mester utca",47.910588,20.357196,,hkir_101196,
hkir_101196_2,"Eger, Mester utca",47.910194,20.357908,,hkir_101196,
hkir_101198,"Eger, Nagy-Eged-dűlő",47.922146,20.426674,1,,
hkir_101198_1,"Eger, Nagy-Eged-dűlő",47.922132,20.426690,,hkir_101198,
hkir_101198_2,"Eger, Nagy-Eged-dűlő",47.922165,20.426656,,hkir_101198,
hkir_101199,"Eger, Nagykőporos út",47.890072,20.402599,1,,
hkir_101199_1,"Eger, Nagykőporos út",47.889973,20.402882,,hkir_101199,
hkir_101199_2,"Eger, Nagykőporos út",47.890175,20.402314,,hkir_101199,
hkir_101200,"Eger, Nagylapos",47.925137,20.368864,1,,
hkir_101200_1,"Eger, Nagylapos",47.925270,20.368971,,hkir_101200,
hkir_101200_2,"Eger, Nagylapos",47.924985,20.368762,,hkir_101200,
hkir_101201,"Eger, Nagyváradi út",47.883442,20.381199,1,,
hkir_101201_1,"Eger, Nagyváradi út",47.882989,20.381165,,hkir_101201,
hkir_101201_2,"Eger, Nagyváradi út",47.883892,20.381233,,hkir_101201,
hkir_101206,"Eger, Rózsás dűlő",47.888149,20.342083,1,,
hkir_101206_1,"Eger, Rózsás dűlő",47.888166,20.341878,,hkir_101206,
hkir_101206_2,"Eger, Rózsás dűlő",47.888139,20.342285,,hkir_101206,
hkir_101207,"Eger, SCHÖN KAEV Kft.",47.880283,20.399384,1,,
hkir_101207_1,"Eger, SCHÖN KAEV Kft.",47.880286,20.399321,,hkir_101207,
hkir_101207_2,"Eger, SCHÖN KAEV Kft.",47.880288,20.399442,,hkir_101207,
hkir_101208,"Eger, Shell kút",47.920113,20.369394,1,,
hkir_101208_1,"Eger, Shell kút",47.919711,20.369551,,hkir_101208,
hkir_101208_2,"Eger, Shell kút",47.920522,20.369234,,hkir_101208,
hkir_101209,"Eger, sportpálya bejárati út",47.894814,20.375923,1,,
hkir_101209_1,"Eger, sportpálya bejárati út",47.894872,20.375984,,hkir_101209,
hkir_101210,"Eger, Szarvas tér",47.901154,20.382343,1,,
hkir_101210_1,"Eger, Szarvas tér",47.901157,20.382343,,hkir_101210,
hkir_101211,"Eger, Széna tér",47.889379,20.380209,1,,
hkir_101211_1,"Eger, Széna tér",47.889465,20.380242,,hkir_101211,
hkir_101212,"Eger, Színház",47.897247,20.374754,1,,
hkir_101212_1,"Eger, Színház",47.896360,20.374991,,hkir_101212,
hkir_101212_2,"Eger, Színház",47.898099,20.374536,,hkir_101212,
hkir_101215,"Eger, Szőlőcskei elágazás",47.928341,20.440271,1,,
hkir_101215_1,"Eger, Szőlőcskei elágazás",47.928330,20.440291,,hkir_101215,
hkir_101215_2,"Eger, Szőlőcskei elágazás",47.928361,20.440252,,hkir_101215,
hkir_101216,"Eger, Szőlőcskei rakodó",47.935364,20.444891,1,,
hkir_101216_1,"Eger, Szőlőcskei rakodó",47.935415,20.444954,,hkir_101216,
hkir_101216_2,"Eger, Szőlőcskei rakodó",47.935320,20.444827,,hkir_101216,
hkir_101217,"Eger, TESCO ÁRUHÁZ",47.923703,20.370558,1,,
hkir_101217_1,"Eger, TESCO ÁRUHÁZ",47.923712,20.370623,,hkir_101217,
hkir_101218,"Eger, Tiba utca",47.916736,20.376058,1,,
hkir_101218_1,"Eger, Tiba utca",47.917302,20.375917,,hkir_101218,
hkir_101218_2,"Eger, Tiba utca",47.916049,20.376169,,hkir_101218,
hkir_101219,"Eger, Tihamér lakótelep",47.889809,20.396372,1,,
hkir_101219_1,"Eger, Tihamér lakótelep",47.889953,20.397060,,hkir_101219,
hkir_101219_2,"Eger, Tihamér lakótelep",47.889670,20.395680,,hkir_101219,
hkir_101220,"Eger, Tihaméri malom",47.888260,20.395697,1,,
hkir_101220_1,"Eger, Tihaméri malom",47.888112,20.395867,,hkir_101220,
hkir_101220_2,"Eger, Tihaméri malom",47.888413,20.395523,,hkir_101220,
hkir_101220_3,"Eger, Tihaméri malom",47.888424,20.396191,,hkir_101220,
hkir_101220_5,"Eger, Tihaméri malom",47.887672,20.394101,,hkir_101220,
hkir_101221,"Eger, Tompa utca",47.876907,20.382229,1,,
hkir_101221_1,"Eger, Tompa utca",47.877186,20.382080,,hkir_101221,
hkir_101221_2,"Eger, Tompa utca",47.876625,20.382374,,hkir_101221,
hkir_101222,"Eger, Törvényszék",47.899141,20.370266,1,,
hkir_101222_1,"Eger, Törvényszék",47.898910,20.371090,,hkir_101222,
hkir_101223,"Eger, Tűzoltó tér",47.906684,20.371918,1,,
hkir_101223_1,"Eger, Tűzoltó tér",47.906992,20.371893,,hkir_101223,
hkir_101223_2,"Eger, Tűzoltó tér",47.906469,20.371850,,hkir_101223,
hkir_101224,"Eger, Uszoda",47.899075,20.382730,1,,
hkir_101224_1,"Eger, Uszoda",47.899078,20.382729,,hkir_101224,
hkir_101225,"Eger, Vállalkozói Park",47.946190,20.381071,1,,
hkir_101225_1,"Eger, Vállalkozói Park",47.946337,20.381250,,hkir_101225,
hkir_101225_2,"Eger, Vállalkozói Park",47.946051,20.380892,,hkir_101225,
hkir_101226,"Eger, vasútállomás",47.891920,20.381042,1,,
hkir_101226_1,"Eger, vasútállomás",47.891920,20.381042,,hkir_101226,
hkir_101227,"Eger, vasútállomás bejárati út",47.891560,20.378939,1,,
hkir_101227_1,"Eger, vasútállomás bejárati út",47.892364,20.378106,,hkir_101227,
hkir_101227_2,"Eger, vasútállomás bejárati út",47.890841,20.379745,,hkir_101227,
hkir_101228,"Eger, Vécsey-völgy",47.911034,20.394110,1,,
hkir_101228_1,"Eger, Vécsey-völgy",47.911025,20.394427,,hkir_101228,
hkir_101228_2,"Eger, Vécsey-völgy",47.911052,20.393790,,hkir_101228,
hkir_101230,"Eger, ZF Hungária Kft.",47.885803,20.397644,1,,
hkir_101230_1,"Eger, ZF Hungária Kft.",47.885350,20.397754,,hkir_101230,
hkir_101230_2,"Eger, ZF Hungária Kft.",47.886260,20.397529,,hkir_101230,
hkir_101232,"Eger, Egri Csillagok utca",47.909815,20.385817,1,,
hkir_101232_1,"Eger, Egri Csillagok utca",47.909774,20.385735,,hkir_101232,
hkir_101232_2,"Eger, Egri Csillagok utca",47.909750,20.385727,,hkir_101232,
hkir_101234,"Eger (Felnémet), Béke út",47.936088,20.359318,1,,
hkir_101234_1,"Eger (Felnémet), Béke út",47.936088,20.359318,,hkir_101234,
hkir_101235,"Eger, Felvégi út",47.941444,20.359913,1,,
hkir_101235_1,"Eger, Felvégi út",47.941497,20.360148,,hkir_101235,
hkir_101235_2,"Eger, Felvégi út",47.941380,20.359734,,hkir_101235,
hkir_101236,"Eger, Garay út",47.899600,20.362580,1,,
hkir_101236_1,"Eger, Garay út",47.899600,20.362580,,hkir_101236,
hkir_101237,"Eger, Hatvani temető",47.895510,20.365080,1,,
hkir_101237_1,"Eger, Hatvani temető",47.895670,20.364945,,hkir_101237,
hkir_101237_2,"Eger, Hatvani temető",47.895265,20.365251,,hkir_101237,
hkir_101238,"Eger, Heves Megyei Kamara",47.872022,20.388279,1,,
hkir_101238_1,"Eger, Heves Megyei Kamara",47.872291,20.388248,,hkir_101238,
hkir_101238_2,"Eger, Heves Megyei Kamara",47.871632,20.388280,,hkir_101238,
hkir_101241,"Eger, Iskola út",47.913464,20.365412,1,,
hkir_101241_1,"Eger, Iskola út",47.913523,20.365603,,hkir_101241,
hkir_101241_2,"Eger, Iskola út",47.913637,20.364946,,hkir_101241,
hkir_101242,"Eger, József Attila út",47.936270,20.365289,1,,
hkir_101242_1,"Eger, József Attila út",47.936270,20.365289,,hkir_101242,
hkir_101243,"Eger, Kisfaludy út",47.901727,20.362852,1,,
hkir_101243_2,"Eger, Kisfaludy út",47.901727,20.362852,,hkir_101243,
hkir_101244,"Eger, kőbánya bejáró út",47.955850,20.374773,1,,
hkir_101244_1,"Eger, kőbánya bejáró út",47.955956,20.374848,,hkir_101244,
hkir_101244_2,"Eger, kőbánya bejáró út",47.955764,20.374757,,hkir_101244,
hkir_101246,"Eger, Lájer Dezső út",47.892005,20.385676,1,,
hkir_101246_1,"Eger, Lájer Dezső út",47.891900,20.385744,,hkir_101246,
hkir_101246_2,"Eger, Lájer Dezső út",47.891900,20.385809,,hkir_101246,
hkir_101247,"Eger, Lajosváros",47.872581,20.383432,1,,
hkir_101247_1,"Eger, Lajosváros",47.872520,20.383350,,hkir_101247,
hkir_101247_2,"Eger, Lajosváros",47.872520,20.383350,,hkir_101247,
hkir_101248,"Eger, Laktanya utca",47.903430,20.357600,1,,
hkir_101248_1,"Eger, Laktanya utca",47.903430,20.357600,,hkir_101248,
hkir_101249,"Eger, Mátyás király út",47.872720,20.382651,1,,
hkir_101249_1,"Eger, Mátyás király út",47.872720,20.382651,,hkir_101249,
hkir_101250,"Eger, Mikes Kelemen út",47.903695,20.358707,1,,
hkir_101250_1,"Eger, Mikes Kelemen út",47.903430,20.357607,,hkir_101250,
hkir_101251,"Eger, Mocsáry Lajos út",47.894422,20.383699,1,,
hkir_101251_1,"Eger, Mocsáry Lajos út",47.894215,20.383758,,hkir_101251,
hkir_101251_2,"Eger, Mocsáry Lajos út",47.894614,20.383661,,hkir_101251,
hkir_101255,"Eger, Pásztorvölgy, lakótelep",47.938775,20.359841,1,,
hkir_101255_1,"Eger, Pásztorvölgy, lakótelep",47.938388,20.359768,,hkir_101255,
hkir_101255_2,"Eger, Pásztorvölgy, lakótelep",47.939214,20.359841,,hkir_101255,
hkir_101257,"Eger, Petőfi út",47.899143,20.364106,1,,
hkir_101257_1,"Eger, Petőfi út",47.899211,20.364151,,hkir_101257,
hkir_101257_2,"Eger, Petőfi út",47.899094,20.364079,,hkir_101257,
hkir_101260,"Eger, Ráckapu tér",47.909912,20.371137,1,,
hkir_101260_1,"Eger, Ráckapu tér",47.909870,20.371130,,hkir_101260,
hkir_101261,"Eger, Radnóti út",47.901620,20.359070,1,,
hkir_101261_1,"Eger, Radnóti út",47.901620,20.359070,,hkir_101261,
hkir_101263,"Eger, Sas út",47.888940,20.387784,1,,
hkir_101263_1,"Eger, Sas út",47.888701,20.387771,,hkir_101263,
hkir_101263_2,"Eger, Sas út",47.889300,20.387878,,hkir_101263,
hkir_101264,"Eger, Szalapart út",47.914920,20.363370,1,,
hkir_101264_1,"Eger, Szalapart út",47.914920,20.363370,,hkir_101264,
hkir_101264_2,"Eger, Szalapart út",47.914920,20.363370,,hkir_101264,
hkir_101265,"Eger, Szövetkezet út",47.874870,20.387733,1,,
hkir_101265_1,"Eger, Szövetkezet út",47.874292,20.387808,,hkir_101265,
hkir_101265_2,"Eger, Szövetkezet út",47.875260,20.387733,,hkir_101265,
hkir_101266,"Eger, Tetemvár út",47.908989,20.378540,1,,
hkir_101266_1,"Eger, Tetemvár út",47.908816,20.378831,,hkir_101266,
hkir_101266_2,"Eger, Tetemvár út",47.908868,20.378638,,hkir_101266,
hkir_101267,"Eger, tiszti házak",47.908605,20.359692,1,,
hkir_101267_1,"Eger, tiszti házak",47.908632,20.359801,,hkir_101267,
hkir_101267_2,"Eger, tiszti házak",47.908555,20.359612,,hkir_101267,
hkir_101268,"Eger, Váci Mihály utca",47.904204,20.357006,1,,
hkir_101268_1,"Eger, Váci Mihály utca",47.904204,20.357006,,hkir_101268,
hkir_101269,"Eger, Vak Bottyán utca",47.902028,20.359789,1,,
hkir_101269_1,"Eger, Vak Bottyán utca",47.902028,20.359789,,hkir_101269,
hkir_101271,"Eger, Vécsey-völgy, forduló",47.910176,20.395149,1,,
hkir_101271_1,"Eger, Vécsey-völgy, forduló",47.910759,20.395149,,hkir_101271,
hkir_101272,"Eger, Veres Péter út",47.875110,20.382421,1,,
hkir_101272_1,"Eger, Veres Péter út",47.875110,20.382421,,hkir_101272,
hkir_101274,"Eger, Töviskesvölgy",47.919903,20.324841,1,,
hkir_101274_1,"Eger, Töviskesvölgy",47.920515,20.324674,,hkir_101274,
hkir_101274_2,"Eger, Töviskesvölgy",47.919300,20.325007,,hkir_101274,
hkir_101275,"Egerbakta, autóbusz-váróterem",47.933292,20.292015,1,,
hkir_101275_1,"Egerbakta, autóbusz-váróterem",47.933313,20.292065,,hkir_101275,
hkir_101275_2,"Egerbakta, autóbusz-váróterem",47.933275,20.291962,,hkir_101275,
hkir_101276,"Egerbakta, Egri út 14.",47.927765,20.299931,1,,
hkir_101276_1,"Egerbakta, Egri út 14.",47.927967,20.299788,,hkir_101276,
hkir_101276_2,"Egerbakta, Egri út 14.",47.927567,20.300070,,hkir_101276,
hkir_101277,"Egerbakta, Rábcavölgyi erdészház",47.929417,20.258965,1,,
hkir_101277_1,"Egerbakta, Rábcavölgyi erdészház",47.929460,20.258770,,hkir_101277,
hkir_101277_2,"Egerbakta, Rábcavölgyi erdészház",47.929381,20.259155,,hkir_101277,
hkir_101278,"Egerbakta, Tető",47.920776,20.318567,1,,
hkir_101278_1,"Egerbakta, Tető",47.920916,20.318081,,hkir_101278,
hkir_101278_2,"Egerbakta, Tető",47.920643,20.319050,,hkir_101278,
hkir_101279,"Egerbakta, Újtelep",47.937771,20.290310,1,,
hkir_101279_1,"Egerbakta, Újtelep",47.937876,20.290295,,hkir_101279,
hkir_101279_2,"Egerbakta, Újtelep",47.937671,20.290318,,hkir_101279,
hkir_101280,"Egerbocs, Alkotmány út 114.",48.031982,20.255636,1,,
hkir_101280_1,"Egerbocs, Alkotmány út 114.",48.031976,20.255667,,hkir_101280,
hkir_101280_2,"Egerbocs, Alkotmány út 114.",48.031992,20.255598,,hkir_101280,
hkir_101282,"Egerbocs, Iskola",48.026627,20.259342,1,,
hkir_101282_1,"Egerbocs, Iskola",48.026641,20.259359,,hkir_101282,
hkir_101282_2,"Egerbocs, Iskola",48.026612,20.259318,,hkir_101282,
hkir_101283,"Egerbocs, Tanya",48.016464,20.262926,1,,
hkir_101283_1,"Egerbocs, Tanya",48.016703,20.262791,,hkir_101283,
hkir_101283_2,"Egerbocs, Tanya",48.016227,20.263055,,hkir_101283,
hkir_101285,"Egercsehi (bányatelep), autóbusz-váróterem",48.054539,20.255377,1,,
hkir_101285_1,"Egercsehi (bányatelep), autóbusz-váróterem",48.054544,20.255375,,hkir_101285,
hkir_101286,"Egercsehi, Bányatelep iskola",48.057434,20.257786,1,,
hkir_101286_1,"Egercsehi, Bányatelep iskola",48.057539,20.257900,,hkir_101286,
hkir_101286_2,"Egercsehi, Bányatelep iskola",48.057337,20.257667,,hkir_101286,
hkir_101287,"Egercsehi, bekölcei elágazás",48.044109,20.271467,1,,
hkir_101287_1,"Egercsehi, bekölcei elágazás",48.044187,20.271062,,hkir_101287,
hkir_101287_2,"Egercsehi, bekölcei elágazás",48.043846,20.271846,,hkir_101287,
hkir_101287_3,"Egercsehi, bekölcei elágazás",48.044772,20.271363,,hkir_101287,
hkir_101288,"Egercsehi, Csónak út",48.064030,20.262907,1,,
hkir_101288_1,"Egercsehi, Csónak út",48.064064,20.262960,,hkir_101288,
hkir_101288_2,"Egercsehi, Csónak út",48.064005,20.262849,,hkir_101288,
hkir_101289,"Egercsehi, Egri út 67.",48.046471,20.261538,1,,
hkir_101289_1,"Egercsehi, Egri út 67.",48.046708,20.261353,,hkir_101289,
hkir_101289_2,"Egercsehi, Egri út 67.",48.046178,20.261803,,hkir_101289,
hkir_101290,"Egercsehi, Falu",48.052582,20.268810,1,,
hkir_101290_1,"Egercsehi, Falu",48.052519,20.268876,,hkir_101290,
hkir_101290_2,"Egercsehi, Falu",48.052657,20.268739,,hkir_101290,
hkir_101292,"Egercsehi, Villói tanya",48.035217,20.281296,1,,
hkir_101292_1,"Egercsehi, Villói tanya",48.035371,20.281198,,hkir_101292,
hkir_101292_2,"Egercsehi, Villói tanya",48.035070,20.281389,,hkir_101292,
hkir_101293,"Egerfarmos, Dózsa út 30.",47.722073,20.531610,1,,
hkir_101293_1,"Egerfarmos, Dózsa út 30.",47.721983,20.531556,,hkir_101293,
hkir_101293_2,"Egerfarmos, Dózsa út 30.",47.722163,20.531666,,hkir_101293,
hkir_101294,"Egerfarmos, Italbolt",47.718777,20.536379,1,,
hkir_101294_1,"Egerfarmos, Italbolt",47.718476,20.536727,,hkir_101294,
hkir_101294_2,"Egerfarmos, Italbolt",47.718896,20.536295,,hkir_101294,
hkir_101294_3,"Egerfarmos, Italbolt",47.718737,20.536247,,hkir_101294,
hkir_101294_4,"Egerfarmos, Italbolt",47.718636,20.536665,,hkir_101294,
hkir_101295,"Egerfarmos, Rákóczi út 82.",47.716732,20.541721,1,,
hkir_101295_1,"Egerfarmos, Rákóczi út 82.",47.716732,20.541721,,hkir_101295,
hkir_101297,"Eger, Olajmezők iroda",47.857861,20.363756,1,,
hkir_101297_1,"Eger, Olajmezők iroda",47.857864,20.363755,,hkir_101297,
hkir_101298,"Egerszalók, Ady Endre út",47.865910,20.326761,1,,
hkir_101298_1,"Egerszalók, Ady Endre út",47.865684,20.326893,,hkir_101298,
hkir_101298_2,"Egerszalók, Ady Endre út",47.866167,20.326610,,hkir_101298,
hkir_101300,"Egerszalók, Gyógyfürdő",47.855015,20.329426,1,,
hkir_101300_1,"Egerszalók, Gyógyfürdő",47.854488,20.329268,,hkir_101300,
hkir_101300_2,"Egerszalók, Gyógyfürdő",47.855429,20.329412,,hkir_101300,
hkir_101302,"Egerszalók, Központ",47.870884,20.325787,1,,
hkir_101302_1,"Egerszalók, Központ",47.870823,20.325937,,hkir_101302,
hkir_101302_2,"Egerszalók, Központ",47.871066,20.326130,,hkir_101302,
hkir_101302_3,"Egerszalók, Központ",47.870884,20.325787,,hkir_101302,
hkir_101303,"Egerszalók, Kristálydomb",47.882683,20.327387,1,,
hkir_101303_1,"Egerszalók, Kristálydomb",47.882454,20.326980,,hkir_101303,
hkir_101303_2,"Egerszalók, Kristálydomb",47.882913,20.327791,,hkir_101303,
hkir_101304,"Egerszalók, Széchenyi István út",47.865177,20.318043,1,,
hkir_101304_1,"Egerszalók, Széchenyi István út",47.865366,20.317951,,hkir_101304,
hkir_101304_2,"Egerszalók, Széchenyi István út",47.865182,20.318048,,hkir_101304,
hkir_101305,"Egerszalók, Templom Bérc",47.875992,20.327095,1,,
hkir_101305_1,"Egerszalók, Templom Bérc",47.876526,20.326986,,hkir_101305,
hkir_101305_2,"Egerszalók, Templom Bérc",47.875473,20.327293,,hkir_101305,
hkir_101306,"Egerszalók, Víztározó",47.886086,20.318213,1,,
hkir_101306_1,"Egerszalók, Víztározó",47.885932,20.318251,,hkir_101306,
hkir_101306_2,"Egerszalók, Víztározó",47.886209,20.318549,,hkir_101306,
hkir_101307,Kovács tanya,47.837658,20.286186,1,,
hkir_101307_1,Kovács tanya,47.837640,20.286074,,hkir_101307,
hkir_101307_2,Kovács tanya,47.837684,20.286295,,hkir_101307,
hkir_101308,"Egerszólát, községháza",47.889931,20.268333,1,,
hkir_101308_1,"Egerszólát, községháza",47.889914,20.268332,,hkir_101308,
hkir_101308_2,"Egerszólát, községháza",47.889914,20.268332,,hkir_101308,
hkir_101309,"Egerszólát, Tanya",47.882923,20.279848,1,,
hkir_101309_1,"Egerszólát, Tanya",47.882509,20.280131,,hkir_101309,
hkir_101309_2,"Egerszólát, Tanya",47.883344,20.279562,,hkir_101309,
hkir_101311,"Erdőkövesd, Hunyadi út 18.",48.033119,20.103813,1,,
hkir_101311_1,"Erdőkövesd, Hunyadi út 18.",48.033214,20.103796,,hkir_101311,
hkir_101311_2,"Erdőkövesd, Hunyadi út 18.",48.033033,20.103823,,hkir_101311,
hkir_101312,"Erdőkövesd, váraszói elágazás",48.041039,20.102503,1,,
hkir_101312_1,"Erdőkövesd, váraszói elágazás",48.041558,20.101943,,hkir_101312,
hkir_101312_2,"Erdőkövesd, váraszói elágazás",48.040466,20.102519,,hkir_101312,
hkir_101312_3,"Erdőkövesd, váraszói elágazás",48.041101,20.103036,,hkir_101312,
hkir_101313,"Erdőtelek, autóbusz-váróterem",47.684372,20.316303,1,,
hkir_101313_1,"Erdőtelek, autóbusz-váróterem",47.684208,20.316470,,hkir_101313,
hkir_101313_2,"Erdőtelek, autóbusz-váróterem",47.684541,20.316136,,hkir_101313,
hkir_101314,"Erdőtelek, Csemegebolt",47.695229,20.309521,1,,
hkir_101314_1,"Erdőtelek, Csemegebolt",47.695321,20.309492,,hkir_101314,
hkir_101314_2,"Erdőtelek, Csemegebolt",47.695139,20.309549,,hkir_101314,
hkir_101315,"Erdőtelek, Fő út 52.",47.677753,20.320005,1,,
hkir_101315_1,"Erdőtelek, Fő út 52.",47.677659,20.320079,,hkir_101315,
hkir_101315_2,"Erdőtelek, Fő út 52.",47.677855,20.319931,,hkir_101315,
hkir_101316,"Erdőtelek, vasútállomás bejárati út",47.689640,20.310646,1,,
hkir_101316_1,"Erdőtelek, vasútállomás bejárati út",47.689354,20.310723,,hkir_101316,
hkir_101316_2,"Erdőtelek, vasútállomás bejárati út",47.689929,20.310568,,hkir_101316,
hkir_101317,"Erk, Almádi tanya",47.616814,20.080206,1,,
hkir_101317_1,"Erk, Almádi tanya",47.616829,20.080238,,hkir_101317,
hkir_101317_2,"Erk, Almádi tanya",47.616805,20.080169,,hkir_101317,
hkir_101318,"Erk, községháza",47.609840,20.076185,1,,
hkir_101318_1,"Erk, községháza",47.610066,20.076198,,hkir_101318,
hkir_101318_2,"Erk, községháza",47.609622,20.076170,,hkir_101318,
hkir_101319,"Fedémes, autóbusz-váróterem",48.034260,20.192162,1,,
hkir_101319_1,"Fedémes, autóbusz-váróterem",48.034256,20.192019,,hkir_101319,
hkir_101319_2,"Fedémes, autóbusz-váróterem",48.034271,20.192298,,hkir_101319,
hkir_101320,"Fedémes, Italbolt",48.030804,20.184193,1,,
hkir_101320_1,"Fedémes, Italbolt",48.030815,20.184161,,hkir_101320,
hkir_101321,"Fedémes, Kutos tanya",48.042999,20.185249,1,,
hkir_101321_1,"Fedémes, Kutos tanya",48.042986,20.185229,,hkir_101321,
hkir_101321_2,"Fedémes, Kutos tanya",48.043018,20.185266,,hkir_101321,
hkir_101323,"Feldebrő, Kossuth út 120.",47.820881,20.231108,1,,
hkir_101323_1,"Feldebrő, Kossuth út 120.",47.820806,20.231103,,hkir_101323,
hkir_101323_2,"Feldebrő, Kossuth út 120.",47.820965,20.231109,,hkir_101323,
hkir_101324,"Feldebrő, községháza",47.814835,20.232315,1,,
hkir_101324_1,"Feldebrő, községháza",47.814761,20.232347,,hkir_101324,
hkir_101324_2,"Feldebrő, községháza",47.814915,20.232283,,hkir_101324,
hkir_101325,"Feldebrő, vécsi elágazás",47.811382,20.228645,1,,
hkir_101325_1,"Feldebrő, vécsi elágazás",47.811478,20.228756,,hkir_101325,
hkir_101325_2,"Feldebrő, vécsi elágazás",47.811589,20.228854,,hkir_101325,
hkir_101326,"Eger, Berva",47.962804,20.380718,1,,
hkir_101326_1,"Eger, Berva",47.962804,20.380718,,hkir_101326,
hkir_101327,"Felsőtárkány, autóbusz-váróterem",47.972763,20.415272,1,,
hkir_101327_1,"Felsőtárkány, autóbusz-váróterem",47.972844,20.415404,,hkir_101327,
hkir_101327_2,"Felsőtárkány, autóbusz-váróterem",47.972689,20.415136,,hkir_101327,
hkir_101328,"Felsőtárkány, Barátvölgyi rom",47.991105,20.458686,1,,
hkir_101328_1,"Felsőtárkány, Barátvölgyi rom",47.990963,20.458594,,hkir_101328,
hkir_101328_2,"Felsőtárkány, Barátvölgyi rom",47.991247,20.458777,,hkir_101328,
hkir_101329,"Felsőtárkány, Csárda",47.983047,20.435671,1,,
hkir_101329_1,"Felsőtárkány, Csárda",47.983020,20.435683,,hkir_101329,
hkir_101329_2,"Felsőtárkány, Csárda",47.983085,20.435657,,hkir_101329,
hkir_101331,"Felsőtárkány, Fő út 324.",47.977322,20.425907,1,,
hkir_101331_1,"Felsőtárkány, Fő út 324.",47.977306,20.425916,,hkir_101331,
hkir_101331_2,"Felsőtárkány, Fő út 324.",47.977343,20.425895,,hkir_101331,
hkir_101332,"Felsőtárkány, Fő út 8.",47.961811,20.400934,1,,
hkir_101332_1,"Felsőtárkány, Fő út 8.",47.961956,20.401123,,hkir_101332,
hkir_101332_2,"Felsőtárkány, Fő út 8.",47.961676,20.400742,,hkir_101332,
hkir_101333,"Felsőtárkány, Fűtőház",47.979763,20.431751,1,,
hkir_101333_1,"Felsőtárkány, Fűtőház",47.979965,20.431974,,hkir_101333,
hkir_101333_2,"Felsőtárkány, Fűtőház",47.979572,20.431524,,hkir_101333,
hkir_101334,"Felsőtárkány, Mészégető",47.965424,20.405500,1,,
hkir_101334_1,"Felsőtárkány, Mészégető",47.965615,20.405737,,hkir_101334,
hkir_101334_2,"Felsőtárkány, Mészégető",47.965239,20.405262,,hkir_101334,
hkir_101335,"Felsőtárkány, Tamás kútja",48.041554,20.486845,1,,
hkir_101335_1,"Felsőtárkány, Tamás kútja",48.041619,20.486972,,hkir_101335,
hkir_101335_2,"Felsőtárkány, Tamás kútja",48.041499,20.486714,,hkir_101335,
hkir_101337,"Füzesabony, DUROPACK",47.757713,20.426924,1,,
hkir_101337_1,"Füzesabony, DUROPACK",47.758735,20.429478,,hkir_101337,
hkir_101337_2,"Füzesabony, DUROPACK",47.758201,20.428138,,hkir_101337,
hkir_101338,"Füzesabony, Erősítő üzem",47.753700,20.405058,1,,
hkir_101338_1,"Füzesabony, Erősítő üzem",47.753463,20.404667,,hkir_101338,
hkir_101338_2,"Füzesabony, Erősítő üzem",47.754269,20.404649,,hkir_101338,
hkir_101338_3,"Füzesabony, Erősítő üzem",47.753366,20.405860,,hkir_101338,
hkir_101339,"Füzesabony, II. számú iskola",47.744470,20.419799,1,,
hkir_101339_1,"Füzesabony, II. számú iskola",47.744511,20.420071,,hkir_101339,
hkir_101340,"Füzesabony, Pikopack",47.760933,20.395117,1,,
hkir_101340_1,"Füzesabony, Pikopack",47.760869,20.395151,,hkir_101340,
hkir_101340_2,"Füzesabony, Pikopack",47.761124,20.394878,,hkir_101340,
hkir_101341,"Füzesabony, Pusztaszikszó",47.768497,20.384384,1,,
hkir_101341_1,"Füzesabony, Pusztaszikszó",47.768026,20.385083,,hkir_101341,
hkir_101341_2,"Füzesabony, Pusztaszikszó",47.768970,20.383682,,hkir_101341,
hkir_101342,"Füzesabony, Szent János tér",47.741768,20.425543,1,,
hkir_101342_1,"Füzesabony, Szent János tér",47.741348,20.425637,,hkir_101342,
hkir_101342_2,"Füzesabony, Szent János tér",47.742185,20.425449,,hkir_101342,
hkir_101344,"Füzesabony, TÜZÉP",47.738918,20.410616,1,,
hkir_101344_1,"Füzesabony, TÜZÉP",47.738587,20.410762,,hkir_101344,
hkir_101344_2,"Füzesabony, TÜZÉP",47.739247,20.410469,,hkir_101344,
hkir_101345,"Füzesabony, vasútállomás bejárati út",47.745911,20.409845,1,,
hkir_101345_1,"Füzesabony, vasútállomás bejárati út",47.746689,20.410096,,hkir_101345,
hkir_101345_2,"Füzesabony, vasútállomás bejárati út",47.745735,20.409289,,hkir_101345,
hkir_101345_3,"Füzesabony, vasútállomás bejárati út",47.745301,20.410147,,hkir_101345,
hkir_101346,"Füzesabony, vasútállomás",47.750957,20.417711,1,,
hkir_101346_0,"Füzesabony, vasútállomás",47.750957,20.417711,,hkir_101346,
hkir_101346_1,"Füzesabony, vasútállomás",47.750957,20.417710,,hkir_101346,1
hkir_101346_2,"Füzesabony, vasútállomás",47.750957,20.417711,,hkir_101346,2
hkir_101346_3,"Füzesabony, vasútállomás",47.750957,20.417711,,hkir_101346,3
hkir_101346_4,"Füzesabony, vasútállomás",47.750957,20.417711,,hkir_101346,4
hkir_101346_5,"Füzesabony, vasútállomás",47.750957,20.417711,,hkir_101346,5
hkir_101346_6,"Füzesabony, vasútállomás",47.750960,20.417709,,hkir_101346,6
hkir_101346_99,"Füzesabony, vasútállomás",47.750957,20.417711,,hkir_101346,
hkir_101347,"Füzesabony, Vasúti aluljáró",47.752811,20.414545,1,,
hkir_101347_1,"Füzesabony, Vasúti aluljáró",47.752963,20.414940,,hkir_101347,
hkir_101347_2,"Füzesabony, Vasúti aluljáró",47.752660,20.414151,,hkir_101347,
hkir_101350,"Gyöngyös, Baross Gábor utca",47.772260,19.935384,1,,
hkir_101350_1,"Gyöngyös, Baross Gábor utca",47.772260,19.935385,,hkir_101350,
hkir_101352,"Gyöngyös, Esze Tamás utca 19.",47.770054,19.934345,1,,
hkir_101352_1,"Gyöngyös, Esze Tamás utca 19.",47.770102,19.934292,,hkir_101352,
hkir_101352_2,"Gyöngyös, Esze Tamás utca 19.",47.770004,19.934400,,hkir_101352,
hkir_101353,"Gyöngyös, Esze Tamás utca 3/1.",47.770203,19.929867,1,,
hkir_101353_1,"Gyöngyös, Esze Tamás utca 3/1.",47.770252,19.929777,,hkir_101353,
hkir_101353_2,"Gyöngyös, Esze Tamás utca 3/1.",47.770150,19.929957,,hkir_101353,
hkir_101354,"Gyöngyös, Gimnázium",47.784260,19.932520,1,,
hkir_101354_1,"Gyöngyös, Gimnázium",47.784278,19.932416,,hkir_101354,
hkir_101354_2,"Gyöngyös, Gimnázium",47.784359,19.932209,,hkir_101354,
hkir_101355,"Gyöngyös, abasári elágazás",47.771557,19.967075,1,,
hkir_101355_1,"Gyöngyös, abasári elágazás",47.770916,19.968045,,hkir_101355,
hkir_101355_2,"Gyöngyös, abasári elágazás",47.771375,19.965912,,hkir_101355,
hkir_101355_3,"Gyöngyös, abasári elágazás",47.772383,19.967259,,hkir_101355,
hkir_101356,"Gyöngyös, Aranysas utca",47.784381,19.914384,1,,
hkir_101356_1,"Gyöngyös, Aranysas utca",47.784421,19.914345,,hkir_101356,
hkir_101357,"Gyöngyös, autóbusz-állomás",47.782475,19.930157,1,,
hkir_101357_0,"Gyöngyös, autóbusz-állomás",47.782475,19.930157,,hkir_101357,
hkir_101357_1,"Gyöngyös, autóbusz-állomás",47.782761,19.930679,,hkir_101357,1
hkir_101357_10,"Gyöngyös, autóbusz-állomás",47.782413,19.929876,,hkir_101357,10
hkir_101357_11,"Gyöngyös, autóbusz-állomás",47.782413,19.929876,,hkir_101357,11
hkir_101357_12,"Gyöngyös, autóbusz-állomás",47.782413,19.929876,,hkir_101357,12
hkir_101357_13,"Gyöngyös, autóbusz-állomás",47.782413,19.929876,,hkir_101357,13
hkir_101357_14,"Gyöngyös, autóbusz-állomás",47.782413,19.929876,,hkir_101357,14
hkir_101357_15,"Gyöngyös, autóbusz-állomás",47.782260,19.929912,,hkir_101357,15
hkir_101357_16,"Gyöngyös, autóbusz-állomás",47.782761,19.930679,,hkir_101357,16
hkir_101357_2,"Gyöngyös, autóbusz-állomás",47.782761,19.930679,,hkir_101357,2
hkir_101357_3,"Gyöngyös, autóbusz-állomás",47.782761,19.930679,,hkir_101357,3
hkir_101357_4,"Gyöngyös, autóbusz-állomás",47.782260,19.929912,,hkir_101357,4
hkir_101357_5,"Gyöngyös, autóbusz-állomás",47.782260,19.929912,,hkir_101357,5
hkir_101357_6,"Gyöngyös, autóbusz-állomás",47.782343,19.930021,,hkir_101357,6
hkir_101357_7,"Gyöngyös, autóbusz-állomás",47.782761,19.930679,,hkir_101357,7
hkir_101357_8,"Gyöngyös, autóbusz-állomás",47.782413,19.929876,,hkir_101357,8
hkir_101357_9,"Gyöngyös, autóbusz-állomás",47.782413,19.929876,,hkir_101357,9
hkir_101357_99,"Gyöngyös, autóbusz-állomás",47.782475,19.930157,,hkir_101357,
hkir_101360,"Gyöngyös, Bugát Pál kórház",47.787395,19.930588,1,,
hkir_101360_1,"Gyöngyös, Bugát Pál kórház",47.787394,19.930585,,hkir_101360,
hkir_101361,"Gyöngyös, Csalogány utca 16.",47.783405,19.917559,1,,
hkir_101361_1,"Gyöngyös, Csalogány utca 16.",47.783406,19.917556,,hkir_101361,
hkir_101362,"Gyöngyös, Csalogány utca 36.",47.779999,19.917124,1,,
hkir_101362_1,"Gyöngyös, Csalogány utca 36.",47.780000,19.917121,,hkir_101362,
hkir_101362_2,"Gyöngyös, Csalogány utca 36.",47.779999,19.917123,,hkir_101362,
hkir_101363,"Gyöngyös, Csillés út",47.767834,19.921125,1,,
hkir_101363_1,"Gyöngyös, Csillés út",47.767200,19.920631,,hkir_101363,
hkir_101363_2,"Gyöngyös, Csillés út",47.768463,19.921623,,hkir_101363,
hkir_101364,"Gyöngyös, Deák Ferenc utca 5-7.",47.786209,19.919893,1,,
hkir_101364_1,"Gyöngyös, Deák Ferenc utca 5-7.",47.786241,19.919865,,hkir_101364,
hkir_101365,"Gyöngyös, Diófa utca",47.795067,19.929935,1,,
hkir_101365_1,"Gyöngyös, Diófa utca",47.795046,19.929985,,hkir_101365,
hkir_101365_2,"Gyöngyös, Diófa utca",47.795095,19.929882,,hkir_101365,
hkir_101366,"Gyöngyös, Diósmalom utca",47.800205,19.931963,1,,
hkir_101366_1,"Gyöngyös, Diósmalom utca",47.800211,19.931976,,hkir_101366,
hkir_101366_2,"Gyöngyös, Diósmalom utca",47.800207,19.931942,,hkir_101366,
hkir_101368,"Gyöngyös, Főiskola",47.790867,19.937717,1,,
hkir_101368_1,"Gyöngyös, Főiskola",47.790786,19.937746,,hkir_101368,
hkir_101368_2,"Gyöngyös, Főiskola",47.790950,19.937686,,hkir_101368,
hkir_101369,"Gyöngyös, gyöngyösoroszi elágazás",47.789268,19.914732,1,,
hkir_101369_1,"Gyöngyös, gyöngyösoroszi elágazás",47.789476,19.914458,,hkir_101369,
hkir_101369_2,"Gyöngyös, gyöngyösoroszi elágazás",47.789066,19.915001,,hkir_101369,
hkir_101370,"Gyöngyös, Dr. Harrer Ferenc utca",47.779561,19.913568,1,,
hkir_101370_1,"Gyöngyös, Dr. Harrer Ferenc utca",47.779535,19.913559,,hkir_101370,
hkir_101371,"Gyöngyös, Hunyadi János utca",47.774647,19.928064,1,,
hkir_101371_1,"Gyöngyös, Hunyadi János utca",47.774646,19.928064,,hkir_101371,
hkir_101372,"Gyöngyös, Ipari Park",47.755661,19.953035,1,,
hkir_101372_1,"Gyöngyös, Ipari Park",47.755543,19.953020,,hkir_101372,
hkir_101372_2,"Gyöngyös, Ipari Park",47.755781,19.953046,,hkir_101372,
hkir_101373,"Gyöngyös, Izraelita temető",47.793594,19.905916,1,,
hkir_101373_1,"Gyöngyös, Izraelita temető",47.793613,19.905929,,hkir_101373,
hkir_101373_2,"Gyöngyös, Izraelita temető",47.793578,19.905899,,hkir_101373,
hkir_101374,"Gyöngyös, Jászsági út 3.",47.773954,19.932164,1,,
hkir_101374_1,"Gyöngyös, Jászsági út 3.",47.774216,19.932373,,hkir_101374,
hkir_101374_2,"Gyöngyös, Jászsági út 3.",47.773692,19.931957,,hkir_101374,
hkir_101375,"Gyöngyös, Jókai Mór utca 57.",47.778590,19.922698,1,,
hkir_101375_1,"Gyöngyös, Jókai Mór utca 57.",47.778542,19.922606,,hkir_101375,
hkir_101375_2,"Gyöngyös, Jókai Mór utca 57.",47.778638,19.922792,,hkir_101375,
hkir_101376,"Gyöngyös, karácsondi elágazás",47.773865,19.939800,1,,
hkir_101376_1,"Gyöngyös, karácsondi elágazás",47.773726,19.939581,,hkir_101376,
hkir_101376_2,"Gyöngyös, karácsondi elágazás",47.774008,19.940015,,hkir_101376,
hkir_101377,"Gyöngyös, Karácsondi út",47.760380,19.949417,1,,
hkir_101377_1,"Gyöngyös, Karácsondi út",47.760324,19.949405,,hkir_101377,
hkir_101377_2,"Gyöngyös, Karácsondi út",47.760436,19.949431,,hkir_101377,
hkir_101378,"Gyöngyös, Kenyérgyár",47.768448,19.917484,1,,
hkir_101378_1,"Gyöngyös, Kenyérgyár",47.768640,19.917274,,hkir_101378,
hkir_101378_2,"Gyöngyös, Kenyérgyár",47.768260,19.917714,,hkir_101378,
hkir_101379,"Gyöngyös, Kinizsi tér",47.794334,19.934141,1,,
hkir_101379_1,"Gyöngyös, Kinizsi tér",47.794332,19.934141,,hkir_101379,
hkir_101380,"Gyöngyös, Kispiac",47.770519,19.925343,1,,
hkir_101380_1,"Gyöngyös, Kispiac",47.770431,19.925631,,hkir_101380,
hkir_101380_2,"Gyöngyös, Kispiac",47.770610,19.925051,,hkir_101380,
hkir_101382,"Gyöngyös, Kollégium",47.796795,19.943592,1,,
hkir_101382_1,"Gyöngyös, Kollégium",47.796952,19.943953,,hkir_101382,
hkir_101382_2,"Gyöngyös, Kollégium",47.796646,19.943228,,hkir_101382,
hkir_101383,"Gyöngyös, Kossuth Lajos út 12.",47.785076,19.929409,1,,
hkir_101383_1,"Gyöngyös, Kossuth Lajos út 12.",47.785196,19.928992,,hkir_101383,
hkir_101383_2,"Gyöngyös, Kossuth Lajos út 12.",47.784960,19.929820,,hkir_101383,
hkir_101384,"Gyöngyös, Mátrai úti ÁBC",47.787655,19.934450,1,,
hkir_101384_1,"Gyöngyös, Mátrai úti ÁBC",47.788003,19.935081,,hkir_101384,
hkir_101384_2,"Gyöngyös, Mátrai úti ÁBC",47.787310,19.933815,,hkir_101384,
hkir_101385,"Gyöngyös, Mérges utca 44.",47.775894,19.928150,1,,
hkir_101385_1,"Gyöngyös, Mérges utca 44.",47.775901,19.928262,,hkir_101385,
hkir_101386,"Gyöngyös, Mérges utca 6.",47.779198,19.928734,1,,
hkir_101386_1,"Gyöngyös, Mérges utca 6.",47.778927,19.928622,,hkir_101386,
hkir_101386_2,"Gyöngyös, Mérges utca 6.",47.779469,19.928840,,hkir_101386,
hkir_101387,"Gyöngyös, MEZŐGÉP",47.774666,19.944023,1,,
hkir_101387_1,"Gyöngyös, MEZŐGÉP",47.774566,19.944592,,hkir_101387,
hkir_101387_2,"Gyöngyös, MEZŐGÉP",47.774808,19.943454,,hkir_101387,
hkir_101388,"Gyöngyös, Olimpia Étterem",47.770367,19.923403,1,,
hkir_101388_1,"Gyöngyös, Olimpia Étterem",47.770325,19.923351,,hkir_101388,
hkir_101388_2,"Gyöngyös, Olimpia Étterem",47.770404,19.923455,,hkir_101388,
hkir_101389,"Gyöngyös, Őrálló utca 37.",47.793213,19.934483,1,,
hkir_101389_2,"Gyöngyös, Őrálló utca 37.",47.793214,19.934483,,hkir_101389,
hkir_101390,"Gyöngyös, Őrálló utca 46.",47.793243,19.933954,1,,
hkir_101390_1,"Gyöngyös, Őrálló utca 46.",47.793243,19.933955,,hkir_101390,
hkir_101391,"Gyöngyös, Őrálló utca 78.",47.793133,19.938646,1,,
hkir_101391_1,"Gyöngyös, Őrálló utca 78.",47.793147,19.938700,,hkir_101391,
hkir_101391_2,"Gyöngyös, Őrálló utca 78.",47.793117,19.938590,,hkir_101391,
hkir_101393,"Gyöngyös, Petőfi utca 174.",47.797180,19.930580,1,,
hkir_101393_1,"Gyöngyös, Petőfi utca 174.",47.797180,19.930614,,hkir_101393,
hkir_101393_2,"Gyöngyös, Petőfi utca 174.",47.797138,19.930650,,hkir_101393,
hkir_101394,"Gyöngyös, Petöfi utca 65.",47.789986,19.927084,1,,
hkir_101394_1,"Gyöngyös, Petöfi utca 65.",47.790232,19.927323,,hkir_101394,
hkir_101394_2,"Gyöngyös, Petöfi utca 65.",47.789740,19.926843,,hkir_101394,
hkir_101395,"Gyöngyös, Petőfi utca 95.",47.792702,19.928476,1,,
hkir_101395_1,"Gyöngyös, Petőfi utca 95.",47.792801,19.928534,,hkir_101395,
hkir_101395_2,"Gyöngyös, Petőfi utca 95.",47.792601,19.928414,,hkir_101395,
hkir_101396,"Gyöngyös, Platán utca 6.",47.772614,19.926670,1,,
hkir_101396_1,"Gyöngyös, Platán utca 6.",47.772570,19.926629,,hkir_101396,
hkir_101396_2,"Gyöngyös, Platán utca 6.",47.772655,19.926714,,hkir_101396,
hkir_101397,"Gyöngyös, Seregély utca 24.",47.797516,19.934561,1,,
hkir_101397_1,"Gyöngyös, Seregély utca 24.",47.797541,19.934552,,hkir_101397,
hkir_101398,"Gyöngyös, Seregély utca 48.",47.799561,19.935326,1,,
hkir_101398_1,"Gyöngyös, Seregély utca 48.",47.799558,19.935326,,hkir_101398,
hkir_101399,"Gyöngyös, Sertéstenyésztő",47.760048,19.901627,1,,
hkir_101399_1,"Gyöngyös, Sertéstenyésztő",47.759885,19.901098,,hkir_101399,
hkir_101399_2,"Gyöngyös, Sertéstenyésztő",47.760218,19.902150,,hkir_101399,
hkir_101400,"Gyöngyös, Strand",47.774455,19.921884,1,,
hkir_101400_1,"Gyöngyös, Strand",47.774403,19.921796,,hkir_101400,
hkir_101400_2,"Gyöngyös, Strand",47.774411,19.921989,,hkir_101400,
hkir_101401,"Gyöngyös, Szent Bertalan templom",47.785606,19.926214,1,,
hkir_101401_1,"Gyöngyös, Szent Bertalan templom",47.785691,19.925853,,hkir_101401,
hkir_101401_2,"Gyöngyös, Szent Bertalan templom",47.785526,19.926545,,hkir_101401,
hkir_101402,"Gyöngyös, Táncsics Mihály utca",47.787102,19.925303,1,,
hkir_101402_1,"Gyöngyös, Táncsics Mihály utca",47.787103,19.925343,,hkir_101402,
hkir_101402_2,"Gyöngyös, Táncsics Mihály utca",47.787112,19.925257,,hkir_101402,
hkir_101404,"Gyöngyös, Toronyház",47.773163,19.923023,1,,
hkir_101404_1,"Gyöngyös, Toronyház",47.773121,19.922714,,hkir_101404,
hkir_101404_2,"Gyöngyös, Toronyház",47.773206,19.923327,,hkir_101404,
hkir_101407,"Gyöngyös, vasútállomás",47.783192,19.934450,1,,
hkir_101407_1,"Gyöngyös, vasútállomás",47.783311,19.934390,,hkir_101407,
hkir_101407_2,"Gyöngyös, vasútállomás",47.783060,19.934552,,hkir_101407,
hkir_101408,"Gyöngyös, Vízművek",47.758038,19.911070,1,,
hkir_101408_1,"Gyöngyös, Vízművek",47.757945,19.911074,,hkir_101408,
hkir_101408_2,"Gyöngyös, Vízművek",47.758135,19.911059,,hkir_101408,
hkir_101409,"Gyöngyös, VOLÁN-telep",47.768639,19.915365,1,,
hkir_101409_1,"Gyöngyös, VOLÁN-telep",47.769039,19.915915,,hkir_101409,
hkir_101409_2,"Gyöngyös, VOLÁN-telep",47.768195,19.914831,,hkir_101409,
hkir_101410,Gyöngyössolymosi elágazás,47.816376,19.958864,1,,
hkir_101410_1,Gyöngyössolymosi elágazás,47.816762,19.959592,,hkir_101410,
hkir_101410_2,Gyöngyössolymosi elágazás,47.815965,19.959089,,hkir_101410,
hkir_101410_3,Gyöngyössolymosi elágazás,47.816412,19.958387,,hkir_101410,
hkir_101411,"Kékestető, Mátrai Gyógyintézet",47.870796,20.009361,1,,
hkir_101411_1,"Kékestető, Mátrai Gyógyintézet",47.870800,20.009359,,hkir_101411,
hkir_101412,"Gyöngyös, Kossuth út 53.",47.780991,19.936611,1,,
hkir_101412_1,"Gyöngyös, Kossuth út 53.",47.781149,19.936683,,hkir_101412,
hkir_101412_2,"Gyöngyös, Kossuth út 53.",47.780832,19.936541,,hkir_101412,
hkir_101414,"Mátrafüred, autóbusz-váróterem",47.831192,19.969969,1,,
hkir_101414_1,"Mátrafüred, autóbusz-váróterem",47.831426,19.969737,,hkir_101414,
hkir_101414_2,"Mátrafüred, autóbusz-váróterem",47.830952,19.970017,,hkir_101414,
